ID,Address,GoogleMapLink,Latitude,Longitude,ExpLoc,City/town/Village/,State,Country,
ELoc0001,"(MPEG) Belem, PA, Brazil",,,,(MPEG) Belem,Belem,,Brazil,
ELoc0002,(Montenegro) Velika Kalica,,,,,Velika Kalica,,Montenegro,
ELoc0003,"(TARI), Tehran, Iran","https://www.google.com/maps/search/(TARI),+Tehran,+Iran/@35.6833948,51.4437896,14z/data=!3m1!4b1",35.6833948,51.4437896,(TARI),Tehran,,Iran,
ELoc0004,"Abha, Saudi Arabia","https://www.google.com/maps/place/Abha+Saudi+Arabia/@18.2419605,42.4083326,11z/data=!3m1!4b1!4m5!3m4!1s0x15e3546315720931:0xa177558c718919b4!8m2!3d18.2464685!4d42.5117238",18.2419605,42.4083326,,Abha,,Saudi Arabia,
ELoc0005,Abidjan,"https://www.google.com/maps/place/Abidjan,+C%C3%B4te+d'Ivoire/@5.3487761,-4.1197507,11z/data=!3m1!4b1!4m5!3m4!1s0xfc1ea5311959121:0x3fe70ddce19221a6!8m2!3d5.3599517!4d-4.0082563",5.3487761,-4.1197507,,,,Abidjan,
ELoc0006,"Abidjan, south Ivory Coast","https://www.google.com/maps/place/Abidjan,+C%C3%B4te+d'Ivoire/@5.3487761,-4.1197507,11z/data=!3m1!4b1!4m5!3m4!1s0xfc1ea5311959121:0x3fe70ddce19221a6!8m2!3d5.3599517!4d-4.0082563",5.3487761,-4.1197507,,Abidjan,,south Ivory Coast,
ELoc0007,"Abomy-calavy, Benin","https://www.google.com/maps/place/Abomey+Calavi,+Benin/@6.4487858,2.3239195,14z/data=!3m1!4b1!4m5!3m4!1s0x1024a907d5334d9b:0xb28a9b10ccbc460a!8m2!3d6.4503024!4d2.3468195",6.4487858,2.3239195,,Abomy-calavy,,Benin,
ELoc0008,"Adana, Turkey","https://www.google.com/maps/place/Adana,+Re%C5%9Fatbey+Mahallesi,+Seyhan%2FAdana,+Turkey/@36.9976069,35.1479829,11z/data=!3m1!4b1!4m5!3m4!1s0x15288f38a79c7193:0xd61674d8580bea06!8m2!3d36.9914194!4d35.3308285",36.9976069,35.1479829,,Adana,,Turkey,
ELoc0009,Adriatic coast,"https://www.google.com/maps/place/Adriatic+Sea/@42.6692602,13.8858362,7z/data=!3m1!4b1!4m5!3m4!1s0x132cdd6541cddfab:0x7ef34f7c5d0522f7!8m2!3d41.8550904!4d17.2902839",42.6692602,13.8858362,,,,Adriatic coast,
ELoc00010,"Afaka, Kaduna","https://www.google.com/maps/place/Afaka,+Nigeria/@10.673742,7.1903491,11z/data=!3m1!4b1!4m5!3m4!1s0x11b2cf21e6c5829d:0x3a2f4b7a7452e9fb!8m2!3d10.6914038!4d7.330053",10.673742,7.1903491,,Afaka,Kaduna,Nigeria,
ELoc00011,Africa,"https://www.google.com/maps/place/Africa/@1.8327193,-16.1272146,3z/data=!3m1!4b1!4m5!3m4!1s0x10a06c0a948cf5d5:0x108270c99e90f0b3!8m2!3d-8.783195!4d34.508523",1.8327193,-16.1272146,,,,Africa,
ELoc00012,"Agerola, southern italy","https://www.google.com/maps/place/80051+Agerola,+Metropolitan+City+of+Naples,+Italy/@40.6465458,14.5099698,13z/data=!3m1!4b1!4m5!3m4!1s0x133b966701a9647b:0x409e11f9963d1c0!8m2!3d40.6380474!4d14.5452164",40.6465458,14.5099698,,Agerola,Southern Italy,Italy,
ELoc00013,"Ait Lkak, Tensift Al Haouz - Marrakech (2900 m)","https://www.google.com/maps/search/Ait+Lkak,+Tensift+Al+Haouz+-+Marrakech+(2900+m)/@31.6920803,-8.8875343,9z/data=!3m1!4b1",31.6920803,-8.8875343,Ait Lkak,Tensift Al Haouz - Marrakech (2900 m),Marrakesh,Morocco,
ELoc00014,"Al -Swdah, Abha, (Saudi Arabia)","https://www.google.com/maps/search/Al+-Swdah,+Abha,+(Saudi+Arabia)/@18.2419605,42.4083326,11z/data=!3m1!4b1",18.2419605,42.4083326,,Al -Swdah,Abha,Saudi Arabia,
ELoc00015,"Al-Shouf, Lebanon","Al-Shouf, Lebanon","Al-Shouf, Lebanon","Al-Shouf, Lebanon","Al-Shouf, Lebanon","Al-Shouf, Lebanon","Al-Shouf, Lebanon","Al-Shouf, Lebanon","Al-Shouf, Lebanon"
ELoc00016,"Alanya, Turkey","https://www.google.com/maps/place/Alanya,+Antalya,+Turkey/@36.5438668,31.9776326,13z/data=!3m1!4b1!4m5!3m4!1s0x14dca27b822cd5fb:0xd160c1c8b3dc170b!8m2!3d36.544443!4d31.995408",36.5438668,31.9776326,,Alanya,,Turkey,
ELoc00017,Albania,"https://www.google.com/maps/place/Albania/@41.1495824,18.9683732,8z/data=!3m1!4b1!4m5!3m4!1s0x13453bf3bd274c2d:0x77ce589d6983bee!8m2!3d41.153332!4d20.168331",41.1495824,18.9683732,,,,Albania,
ELoc00018,"Albany, Australia","https://www.google.com/maps/place/Albany+WA+6330,+Australia/@-35.0280492,117.8754271,15z/data=!3m1!4b1!4m5!3m4!1s0x2a392725e23b9d29:0x500f638247a0e90!8m2!3d-35.0275298!4d117.883959",-35.0280492,117.8754271,,Albany,,Australia,
ELoc00019,"Albany, Western Australia","https://www.google.com/maps/place/Albany+WA+6330,+Australia/@-35.0280492,117.8754271,15z/data=!3m1!4b1!4m5!3m4!1s0x2a392725e23b9d29:0x500f638247a0e90!8m2!3d-35.0275298!4d117.883959",-35.0280492,117.8754271,,Albany,Western Australia,Australia,
ELoc00020,"Alberaccio (Pisa), Italy","https://www.google.com/maps/place/56028+Alberaccio,+Province+of+Pisa,+Italy/@43.6967799,10.7664832,17z/data=!3m1!4b1!4m5!3m4!1s0x132a71b22bb63157:0x3da34df29c7d82da!8m2!3d43.6967229!4d10.7688065",43.6967799,10.7664832,,Alberaccio (Pisa),,Italy,
ELoc00021,Alborz Mountains,"https://www.google.com/maps/place/Alborz/@36.0758495,51.7873562,15z/data=!3m1!4b1!4m5!3m4!1s0x3f8e38ef65477bfb:0x1d2556e3fd0be9ac!8m2!3d36.075833!4d51.796111",36.0758495,51.7873562,Alborz Mountains,,,,
ELoc00022,Algeria,"https://www.google.com/maps/place/Algeria/@27.8195343,-7.3490778,5z/data=!3m1!4b1!4m5!3m4!1s0xd7e8a6a28037bd1:0x7140bee3abd7f8a2!8m2!3d28.033886!4d1.659626",27.8195343,-7.3490778,,,,Algeria,
ELoc00023,Algerian Bejaia,"https://www.google.com/maps/place/B%C3%A9ja%C3%AFa,+Algeria/@36.7697138,4.9385455,12z/data=!3m1!4b1!4m5!3m4!1s0x12f2cca1a82082c5:0x7807b41e13330b6e!8m2!3d36.7508896!4d5.0567333",36.7697138,4.9385455,,,Bejaia,Algeria,
ELoc00024,"Algiers, Algeria","https://www.google.com/maps/place/Algiers,+Sidi+M'Hamed,+Algeria/@36.7538345,3.0534636,16z/data=!3m1!4b1!4m5!3m4!1s0x128fb26977ea659f:0x4231102d38a36f49!8m2!3d36.753768!4d3.0587561",36.7538345,3.0534636,,Algiers,,Algeria,
ELoc00025,"Almeirim, Brazil","https://www.google.com/maps/place/Almeirim,+State+of+Par%C3%A1,+68230-000,+Brazil/@-1.5239312,-52.5873261,15z/data=!3m1!4b1!4m5!3m4!1s0x929ad12e84f0156d:0x3b49477f9e3fac9b!8m2!3d-1.5239527!4d-52.5785713",-1.5239312,-52.5873261,,Almeirim,Para,Brazil,
ELoc00026,"Alquizer, Cuba","https://www.google.com/maps/place/Alqu%C3%ADzar,+Cuba/@22.8049645,-82.5953437,15z/data=!3m1!4b1!4m5!3m4!1s0x88cd3f94d8e696cd:0xe120b70fef9e8b64!8m2!3d22.8064234!4d-82.5848464",22.8049645,-82.5953437,,Alquizer,,Cuba,
ELoc00027,Altai Region,"https://www.google.com/maps/place/Altai+Republic,+Russia/@50.847398,84.653786,7z/data=!3m1!4b1!4m5!3m4!1s0x42c62695a667e959:0x103c6af52459450!8m2!3d50.6181924!4d86.2199308",50.847398,84.653786,Altai Region,,Altai Region,Russia,
ELoc00028,"Altai Region,Russia","https://www.google.com/maps/place/Altai+Krai,+Russia/@52.4670193,78.0439161,6z/data=!3m1!4b1!4m5!3m4!1s0x42e7d4873e2241ff:0xee7f02708d6c3bd5!8m2!3d51.7936298!4d82.6758596",52.4670193,78.0439161,,Altai Region,,Russia,
ELoc00029,"Altai, Russia","https://www.google.com/maps/place/Altai+Republic,+Russia/@50.847398,84.653786,7z/data=!3m1!4b1!4m5!3m4!1s0x42c62695a667e959:0x103c6af52459450!8m2!3d50.6181924!4d86.2199308",50.847398,84.653786,,Altai,,Russia,
ELoc00030,Alto sapanan,"https://www.google.com/maps/search/Alto+sapanan/@28.7849706,50.3855765,8z/data=!3m1!4b1",28.7849706,50.3855765,,,,Alto sapanan,
ELoc00031,Amazon,"https://www.google.com/maps/search/Amazon/@28.5917563,77.051225,11z/data=!3m1!4b1",28.5917563,77.051225,Amazon,,,,
ELoc00032,"Amazon (Alta Floresta, malo Grosso)","https://www.google.com/maps/search/Amazon+(Alta+Floresta,+malo+Grosso)/@-10.0402476,-56.9650575,9z/data=!3m1!4b1",-10.0402476,-56.9650575,,(Alta Floresta malo Grosso),Amazon,USA,
ELoc00033,Amazon (Chapada dos Guimeraes Mato Grosso),"https://www.google.com/maps/place/Chapada+dos+Guimar%C3%A3es+-+State+of+Mato+Grosso,+Brazil/@-15.0985268,-56.0958691,9z/data=!3m1!4b1!4m5!3m4!1s0x939d93943a60875f:0xb4ce2561e9a0702b!8m2!3d-15.4639898!4d-55.749869",-15.0985268,-56.0958691,,(Chapada dos Guimeraes Mato Grosso),Amazon,USA,
ELoc00034,"Amazon (Macapa, Amapa)","https://www.google.com/maps/place/Macap%C3%A1,+State+of+Amap%C3%A1,+Brazil/@0.1021153,-51.2369464,11z/data=!3m1!4b1!4m5!3m4!1s0x8d61e5e06b4b1a37:0x56357df330df0f97!8m2!3d0.0355735!4d-51.070535",0.1021153,-51.2369464,,(Macapa Amapa),Amazon,USA,
ELoc00035,"Amazon (Megaco, Para)",,,,,(Megaco Para),Amazon,USA,
ELoc00036,"Amazon (Peixe-Boi, Para)","https://www.google.com/maps/search/Amazon+(Peixe-Boi,+Para)/@-1.1250562,-47.4089669,11z/data=!3m1!4b1",-1.1250562,-47.4089669,,(Peixe-Boi Para),Amazon,USA,
ELoc00037,"Amazonas department (Peru), Colombia","https://www.google.com/maps/search/Amazonas+department+(Peru),+Colombia/@-2.0522035,-74.133183,7z/data=!3m1!4b1",-2.0522035,-74.133183,,Amazonas department (Peru),,India,
ELoc00038,America,"https://www.google.com/maps/place/United+States/@36.2487914,-113.7064373,4z/data=!3m1!4b1!4m5!3m4!1s0x54eab584e432360b:0x1c3bb99243deb742!8m2!3d37.09024!4d-95.712891",36.2487914,-113.7064373,,,,America,
ELoc00039,"Andhra pradesh, India","https://www.google.com/maps/place/Andhra+Pradesh/@15.8884056,78.5184688,7z/data=!3m1!4b1!4m5!3m4!1s0x3a3546f8ae93d47f:0x33d1bbbe95adcd83!8m2!3d15.9128998!4d79.7399875",15.8884056,78.5184688,,,Andhra pradesh,India,
ELoc00040,"Andino Cuyana, Argentina","https://www.google.com/maps/place/Andes/@-17.374042,-106.7684427,3z/data=!3m1!4b1!4m5!3m4!1s0x968792fc5a4e9d2f:0x8b16530d02147954!8m2!3d-21.1607667!4d-66.7752481",-17.374042,-106.7684427,,Andino Cuyana,,Argentina,
ELoc00041,"Anjanisain (Tehri Garhwal), Uttarakhand, India (30°18'56.20N","https://www.google.com/maps/place/Anjanisain,+Uttarakhand+249121/@30.3170061,78.5767507,15z/data=!3m1!4b1!4m5!3m4!1s0x39090146ffbb24c7:0x1cb3f26a2e66087f!8m2!3d30.3156104!4d78.5845374",30.3170061,78.5767507,,Anjanisain (Tehri Garhwal),Uttarakhand,India,
ELoc00042,"Anjirak, Province of Baluchestan, Southeast Iran",,,,Southeast Iran,Anjirak,Province of Baluchestan,Iran,
ELoc00043,Antalya,"https://www.google.com/maps/place/Antalya,+Turkey/@36.8981299,30.578021,11z/data=!3m1!4b1!4m5!3m4!1s0x14c39aaeddadadc1:0x95c69f73f9e32e33!8m2!3d36.8968908!4d30.7133233",36.8981299,30.578021,,Antalya,Antalya province,Turkey,
ELoc00044,"Antalya, Turkey","https://www.google.com/maps/place/Antalya,+Turkey/@36.8981299,30.578021,11z/data=!3m1!4b1!4m5!3m4!1s0x14c39aaeddadadc1:0x95c69f73f9e32e33!8m2!3d36.8968908!4d30.7133233",36.8981299,30.578021,,Antalya,,Turkey,
ELoc00045,"Antalya,Turkey","https://www.google.com/maps/place/Antalya,+Turkey/@36.8981299,30.578021,11z/data=!3m1!4b1!4m5!3m4!1s0x14c39aaeddadadc1:0x95c69f73f9e32e33!8m2!3d36.8968908!4d30.7133233",36.8981299,30.578021,,Antalya,,Turkey,
ELoc00046,"Apani, Italy (40° 40’ 47.2” N, 17° 55’ 24.2” E, 5m)",,,,,Apani,,Italy,
ELoc00047,"Arak, Province of Markazi Iran","https://www.google.com/maps/place/Arak,+Markazi+Province,+Iran/@34.0732755,49.6503689,12z/data=!3m1!4b1!4m5!3m4!1s0x3fec9554150e5439:0x2919ecd4b6d4348c!8m2!3d34.0953553!4d49.7013486",34.0732755,49.6503689,,Arak,Province of Markazi Iran,Iran,
ELoc00048,Argentina,"https://www.google.com/maps/place/Argentina/@-37.0243419,-81.6092947,4z/data=!3m1!4b1!4m5!3m4!1s0x95bccaf5f5fdc667:0x3d2f77992af00fa8!8m2!3d-38.416097!4d-63.616672",-37.0243419,-81.6092947,,,,Argentina,
ELoc00049,Arizona,"https://www.google.com/maps/place/Arizona,+USA/@34.1525526,-114.1729874,7z/data=!3m1!4b1!4m5!3m4!1s0x872b08ebcb4c186b:0x423927b17fc1cd71!8m2!3d34.0489281!4d-111.0937311",34.1525526,-114.1729874,,,,Arizona,
ELoc00050,"Arizona (origin: Ocozocoautla, Chiapas, Mexico)","https://www.google.com/maps/search/Arizona+(origin:+Ocozocoautla,+Chiapas,+Mexico)/@26.451238,-113.0181844,5z/data=!3m1!4b1",26.451238,-113.0181844,(origin: Ocozocoautla  Chiapas  Mexico),,Arizona,USA,
ELoc00051,"Arizona (origin: San jose, Costa Rica)","https://www.google.com/maps/search/Arizona+(origin:+San+jose,+Costa+Rica)/@23.2129924,-108.4540936,5z/data=!3m1!4b1",23.2129924,-108.4540936,(origin: San jose Costa Rica),,Arizona,USA,
ELoc00052,"Arizona (origin: commercial nursery, California)","https://www.google.com/maps/search/Arizona+(origin:+commercial+nursery,+California)/@33.5459475,-112.3232945,11z/data=!3m1!4b1",33.5459475,-112.3232945,(origin: commercial nursery  California),,Arizona,USA,
ELoc00053,"Arizona (origin: commercial nursery, Guadalajara, Mexico)","https://www.google.com/maps/place/Mountain+States+Wholesale+Nursery/@33.5475145,-112.3568527,17z/data=!3m1!4b1!4m5!3m4!1s0x872b46bdad49f41b:0xa3837705f167e711!8m2!3d33.54751!4d-112.354664",33.5475145,-112.3568527,(origin: commercial nursery  Guadalajara  Mexico),,Arizona,USA,
ELoc00054,"Arizona (origin: market in Villahermosa, Mexico)","https://www.google.com/maps/search/Arizona+(origin:+market+in+Villahermosa,+Mexico)/@27.2001513,-112.8658188,5z/data=!3m1!4b1",27.2001513,-112.8658188,(origin: market in Villahermosa  Mexico),,Arizona,USA,
ELoc00055,"Arnaccio, Italy","https://www.google.com/maps/place/56021+Arnaccio,+Province+of+Pisa,+Italy/@43.6444445,10.4447799,16z/data=!3m1!4b1!4m5!3m4!1s0x12d58d653ca80245:0x41affbfb57e5b7b4!8m2!3d43.6439924!4d10.4492677",43.6444445,10.4447799,,Arnaccio,,Italy,
ELoc00056,"Arroio dos ratos, Rio Grande do Sul State, South Brazil","https://www.google.com/maps/place/Arroio+dos+Ratos,+RS,+Brazil/@-30.1722673,-51.8750034,11z/data=!3m1!4b1!4m5!3m4!1s0x951bb9b47aa65865:0xcf9cdc65e3eb76d5!8m2!3d-30.0880438!4d-51.7279954",-30.1722673,-51.8750034,,Arroio dos ratos,Rio Grande do Sul State,Brazil,
ELoc00057,Asciano (Siena),"https://www.google.com/maps/place/53041+Asciano,+Province+of+Siena,+Italy/@43.2333689,11.5524428,14z/data=!3m1!4b1!4m5!3m4!1s0x132bd857c037d1b7:0x416dd9d8909c1a7d!8m2!3d43.2339704!4d11.5606307",43.2333689,11.5524428,,Asciano,,(Siena),
ELoc00058,Atessa Chieti,"https://www.google.com/maps/place/66041+Atessa,+Province+of+Chieti,+Italy/@42.0713735,14.444875,15z/data=!3m1!4b1!4m5!3m4!1s0x1330f0363831d4d1:0x906de7b4bac05d9d!8m2!3d42.071436!4d14.4511304",42.0713735,14.444875,Atessa Chieti,,"province of Chieti, Abruzzo",Italy,
ELoc00059,Athens,"https://www.google.com/maps/place/Athens,+Greece/@37.9908997,23.7033199,13z/data=!3m1!4b1!4m5!3m4!1s0x14a1bd1f067043f1:0x2736354576668ddd!8m2!3d37.9838096!4d23.7275388",37.9908997,23.7033199,,Athens,,Greece,
ELoc00060,"Athens, Greece","https://www.google.com/maps/place/Athens,+Greece/@37.9908997,23.7033199,13z/data=!3m1!4b1!4m5!3m4!1s0x14a1bd1f067043f1:0x2736354576668ddd!8m2!3d37.9838096!4d23.7275388",37.9908997,23.7033199,,Athens,,Greece,
ELoc00061,"Attica, Greece","https://www.google.com/maps/place/Attica,+Greece/@37.0785976,22.3824307,8z/data=!3m1!4b1!4m5!3m4!1s0x149f0f67bb180b53:0x100bd2ce2b98090!8m2!3d38.0457568!4d23.8584737",37.0785976,22.3824307,,Attica,Athens,Greece,
ELoc00062,Australia,"https://www.google.com/maps/place/Australia/@-24.9903641,115.2098999,4z/data=!3m1!4b1!4m5!3m4!1s0x2b2bfd076787c5df:0x538267a1955b1352!8m2!3d-25.274398!4d133.775136",-24.9903641,115.2098999,,,,Australia,
ELoc00063,Australia (northern population),"https://www.google.com/maps/search/Australia+(northern+population)/@-23.7674407,127.2359845,5z/data=!3m1!4b1",-23.7674407,127.2359845,,,Northern Population,Australia,
ELoc00064,Australia (southern population),"https://www.google.com/maps/place/Murray+Bridge+SA+5254,+Australia/@-35.1293336,139.232355,13z/data=!3m1!4b1!4m5!3m4!1s0x6ab70cb9048102ff:0x5033654628eff50!8m2!3d-35.1311491!4d139.2650902",-35.1293336,139.232355,,,Southern Population,Australia,
ELoc00065,Australia and Papua New Guinea,"https://www.google.com/maps/search/Australia+and+Papua+New+Guinea/@-5.4344451,131.8620396,5z/data=!3m1!4b1",-5.4344451,131.8620396,,,,Australia and Papua New Guinea,
ELoc00066,Austria,"https://www.google.com/maps/place/Austria/@47.6783179,11.103048,7z/data=!3m1!4b1!4m5!3m4!1s0x476d079b259d2a7f:0x1012d47bdde4c1af!8m2!3d47.516231!4d14.550072",47.6783179,11.103048,,,,Austria,
ELoc00067,"Auvergne, central France","https://www.google.com/maps/place/Auvergne,+France/@45.706471,2.1557966,8z/data=!3m1!4b1!4m5!3m4!1s0x47f6e4b16e4b8fdd:0x1093cafcbe32450!8m2!3d45.7032695!4d3.3448536",45.706471,2.1557966,,Auvergne,Central France,France,
ELoc00068,"Avetrana, Italy (40° 20’ 24.1” N, 17° 44’ 55.3” E, 48m)","https://www.google.com/maps/place/74020+Avetrana,+Province+of+Taranto,+Italy/@40.3506111,17.7253362,15z/data=!3m1!4b1!4m5!3m4!1s0x13469245b859fcc9:0xafd6aab69c9e0887!8m2!3d40.3507245!4d17.7266708",40.3506111,17.7253362,,Avetrana,,Italy,
ELoc00069,"Azarbaijan Province, Iran","https://www.google.com/maps/place/West+Azerbaijan+Province,+Iran/@37.85806,43.4488721,7z/data=!3m1!4b1!4m5!3m4!1s0x401aa1468c7a4c19:0xea02f18e3e5ee1ab!8m2!3d37.4550062!4d45",37.85806,43.4488721,,,Azarbaijan Province,Iran,
ELoc00070,"B'Shaare, Lebanon",,,,,,,,
ELoc00071,"Babolsar, Iran","https://www.google.com/maps/place/Babolsar,+Mazandaran+Province,+Iran/@36.6978051,52.6279694,13z/data=!3m1!4b1!4m5!3m4!1s0x3f8f81c6f2554bfb:0x1d77f2bb333c2f3a!8m2!3d36.7048972!4d52.6546785",36.6978051,52.6279694,,Babolsar,Babolsar County,Iran,
ELoc00072,"Babtai, Lithuania","https://www.google.com/maps/place/Babtai,+Lithuania/@55.0755635,23.7749128,13z/data=!3m1!4b1!4m5!3m4!1s0x46e6e2e4b52368fd:0x50c30e9bd5e70696!8m2!3d55.0878609!4d23.7984099",55.0755635,23.7749128,,Babtai,,Lithuania,
ELoc00073,"Badagry, Lagos State, Nigeria","https://www.google.com/maps/place/Badagry,+Nigeria/@6.4285341,2.8674529,14z/data=!3m1!4b1!4m5!3m4!1s0x103b625e227e0c67:0x25b1c6c3a8348663!8m2!3d6.4315805!4d2.8876436",6.4285341,2.8674529,,Badagry,Lagos State,Nigeria,
ELoc00074,Bafoussam,"https://www.google.com/maps/place/Bafoussam,+Cameroon/@5.4807503,10.3898043,13z/data=!3m1!4b1!4m5!3m4!1s0x105f9a969870caef:0x4ff58699c7d49808!8m2!3d5.4807517!4d10.4284178",5.4807503,10.3898043,,,,Bafoussam,
ELoc00075,Bafoussam region(Cameroon),"https://www.google.com/maps/place/Bafoussam,+Cameroon/@5.4807503,10.3898043,13z/data=!3m1!4b1!4m5!3m4!1s0x105f9a969870caef:0x4ff58699c7d49808!8m2!3d5.4807517!4d10.4284178",5.4807503,10.3898043,,Bafoussam region,,Cameroon,
ELoc00076,"Bafoussam,Cameroon","https://www.google.com/maps/place/Bafoussam,+Cameroon/@5.4807503,10.3898043,13z/data=!3m1!4b1!4m5!3m4!1s0x105f9a969870caef:0x4ff58699c7d49808!8m2!3d5.4807517!4d10.4284178",5.4807503,10.3898043,,Bafoussam,,Cameroon,
ELoc00077,"Bahia, Brazil","https://www.google.com/maps/place/State+of+Bahia,+Brazil/@-13.3838399,-46.4785646,6z/data=!3m1!4b1!4m5!3m4!1s0x716037ca23ca5b3:0x7e926f5fb491ed05!8m2!3d-12.579738!4d-41.7007272",-13.3838399,-46.4785646,,Bahia,,Brazil,
ELoc00078,"Balikesir, Erdek","https://www.google.com/maps/place/Erdek,+Bal%C4%B1kesir+Province,+Turkey/@40.4027514,27.7679999,14z/data=!3m1!4b1!4m5!3m4!1s0x14b42ef03d99693b:0x24dd0a4bb360f4ad!8m2!3d40.39832!4d27.791673",40.4027514,27.7679999,,Erdek,Bal?kesir Province,Turkey,
ELoc00079,"Balıkesir, Turkey","https://www.google.com/maps/place/Balikesir,+Bal%C4%B1kesir+Province,+Turkey/@39.6478833,27.8547331,13z/data=!3m1!4b1!4m5!3m4!1s0x14b7003b8bbb36d7:0xea6e0949f8f4ea6a!8m2!3d39.6532976!4d27.8903423",39.6478833,27.8547331,,Balıkesir,,Turkey,
ELoc00080,"Banda Riba Seru Grandi, Curacao","https://www.google.com/maps/search/Banda+Riba+Seru+Grandi,+Curacao/@12.1904535,-69.0017957,16z/data=!3m1!4b1",12.1904535,-69.0017957,,Banda Riba Seru Grandi,,Curacao,
ELoc00081,"Bangalore, India","https://www.google.com/maps/place/Bengaluru,+Karnataka/@12.9542946,77.4908539,11z/data=!3m1!4b1!4m5!3m4!1s0x3bae1670c9b44e6d:0xf8dfc3e8517e4fe0!8m2!3d12.9715987!4d77.5945627",12.9542946,77.4908539,,Bangalore,,India,
ELoc00082,Bangladesh,"https://www.google.com/maps/place/Bangladesh/@23.4956288,88.1004405,7z/data=!3m1!4b1!4m5!3m4!1s0x30adaaed80e18ba7:0xf2d28e0c4e1fc6b!8m2!3d23.684994!4d90.356331",23.4956288,88.1004405,,,,Bangladesh,
ELoc00083,Bante(Center of Benin),"https://www.google.com/maps/search/Bante(Center+of+Benin)/@8.4139818,1.8798637,15z/data=!3m1!4b1",8.4139818,1.8798637,,Bante,Center of Benin,Benin,
ELoc00084,"Bastak, south of Iran","https://www.google.com/maps/place/Bastak,+Hormozgan+Province,+Iran/@27.1963552,54.3425415,14z/data=!3m1!4b1!4m5!3m4!1s0x3e5721222805dc27:0xe76103e13b4260cc!8m2!3d27.198639!4d54.3666012",27.1963552,54.3425415,,Bastak,South of Iran,Iran,
ELoc00085,"Bato Arang, Malaysia","https://www.google.com/maps/place/Batu+Arang,+Selangor,+Malaysia/@3.3210316,101.4279811,13z/data=!3m1!4b1!4m5!3m4!1s0x31cc5dafecf05b8f:0xe36f679eee4c2ee9!8m2!3d3.318961!4d101.4730672",3.3210316,101.4279811,,Bato Arang,,Malaysia,
ELoc00086,"Batu Arang, Malaysia","https://www.google.com/maps/place/Batu+Arang,+Selangor,+Malaysia/@3.3210316,101.4279811,13z/data=!3m1!4b1!4m5!3m4!1s0x31cc5dafecf05b8f:0xe36f679eee4c2ee9!8m2!3d3.318961!4d101.4730672",3.3210316,101.4279811,,Batu Arang,,Malaysia,
ELoc00087,"Belem (PA), Brazil","https://www.google.com/maps/place/Bel%C3%A9m+-+State+of+Par%C3%A1,+Brazil/@-1.2726586,-48.6003519,11z/data=!3m1!4b1!4m5!3m4!1s0x92a46669f5986e5f:0xe336db2d6ab189cc!8m2!3d-1.4557292!4d-48.4901785",-1.2726586,-48.6003519,,Belem,Para,Brazil,
ELoc00088,"Belem (PA, Brazil","https://www.google.com/maps/place/Bel%C3%A9m+-+State+of+Par%C3%A1,+Brazil/@-1.2726586,-48.6003519,11z/data=!3m1!4b1!4m5!3m4!1s0x92a46669f5986e5f:0xe336db2d6ab189cc!8m2!3d-1.4557292!4d-48.4901785",-1.2726586,-48.6003519,,Belem,Para,Brazil,
ELoc00089,"Belem (Para), Brazil","https://www.google.com/maps/place/Bel%C3%A9m+-+State+of+Par%C3%A1,+Brazil/@-1.2726586,-48.6003519,11z/data=!3m1!4b1!4m5!3m4!1s0x92a46669f5986e5f:0xe336db2d6ab189cc!8m2!3d-1.4557292!4d-48.4901785",-1.2726586,-48.6003519,,Belem,Para,Brazil,
ELoc00090,"Belem city (Para), Brazil","https://www.google.com/maps/search/Belem+city+(Para),+Brazil/@-1.2723039,-48.5350687,10z/data=!3m1!4b1",-1.2723039,-48.5350687,,Belem city ,Para,Brazil,
ELoc00091,Belgium,"https://www.google.com/maps/place/Belgium/@50.497444,3.3451183,8z/data=!3m1!4b1!4m5!3m4!1s0x47c17d64edf39797:0x47ebf2b439e60ff2!8m2!3d50.503887!4d4.469936",50.497444,3.3451183,,,,Belgium,
ELoc00092,Bellocchio (Ravenna),"https://www.google.com/maps/place/Via+Bellocchio,+48123+Ravenna+RA,+Italy/@44.5781634,12.2228032,17z/data=!3m1!4b1!4m5!3m4!1s0x477de171cd5f3043:0x921dfc7d38dbd335!8m2!3d44.5781596!4d12.2249919",44.5781634,12.2228032,,Ravenna,Emilia-Romagna,Italy,
ELoc00093,"Belterra, Brazil","https://www.google.com/maps/place/Belterra+-+State+of+Par%C3%A1,+Brazil/@-3.2462516,-55.5770012,9z/data=!3m1!4b1!4m5!3m4!1s0x9289a5cc954314f1:0x5ab8fdb6e945174a!8m2!3d-3.1295449!4d-54.9724664",-3.2462516,-55.5770012,,Belterra,Para,Brazil,
ELoc00094,"Bendemeer, NewSouth Wales","https://www.google.com/maps/place/Bendemeer+NSW+2355,+Australia/@-30.8033548,151.0374971,11z/data=!3m1!4b1!4m5!3m4!1s0x6ba017422931cfbb:0x40609b49043bca0!8m2!3d-30.8697795!4d151.1512433",-30.8033548,151.0374971,,Bendemeer,NewSouth Wales,Australia,
ELoc00095,Benin,"https://www.google.com/maps/place/Benin/@9.3057682,0.0650978,7z/data=!3m1!4b1!4m5!3m4!1s0x1023542b047a5695:0xecb277f8cb622ef5!8m2!3d9.30769!4d2.315834",9.3057682,0.0650978,,,,Benin,
ELoc00096,"Ber, Australia","https://www.google.com/maps/search/Ber,+Australia/@-9.7790045,-139.12106,11z",-9.7790045,-139.12106,,Ber,,Australia,
ELoc00097,Besna Kobila (Serbia),"https://www.google.com/maps/place/Besna+Kobila/@42.5294593,22.2218008,15z/data=!3m1!4b1!4m5!3m4!1s0x13553f78938b7c67:0x2f02ec811136bdc2!8m2!3d42.5294444!4d22.2305556",42.5294593,22.2218008,,Besna Kobila,,Serbia,
ELoc00098,"Bhaldana, India","https://www.google.com/maps/place/Baldana,+Gujarat+363421/@22.5695199,71.697936,17z/data=!3m1!4b1!4m5!3m4!1s0x39593bb88aa09ce7:0x9fa729e56c7e5104!8m2!3d22.5690073!4d71.7007062",22.5695199,71.697936,,Bhaldana,,India,
ELoc00099,"Bhatwari, India","https://www.google.com/maps/place/Bhatwari,+Uttarakhand+249135/@30.8192902,78.6141622,16z/data=!3m1!4b1!4m5!3m4!1s0x39088a52077c1b9b:0xf3b90b8211aaa266!8m2!3d30.818273!4d78.6185941",30.8192902,78.6141622,,Bhatwari,,India,
ELoc000100,"Bibans, Algeria","https://www.google.com/maps/search/Bibans,+Algeria/@-32.3508838,-65.0253006,14z",-32.3508838,-65.0253006,,Bibans,,Algeria,
ELoc000101,Bielsk Podlaski (Poland),"https://www.google.com/maps/place/17-100+Bielsk+Podlaski,+Poland/@52.7643417,23.1551907,13z/data=!3m1!4b1!4m5!3m4!1s0x472023903269b7d3:0xfedf75199d10c898!8m2!3d52.7650576!4d23.1867524",52.7643417,23.1551907,,Bielsk Podlaski,,Poland,
ELoc000102,"Biling, India","https://www.google.com/maps/place/Bir,+Himachal+Pradesh/@32.0441591,76.7148149,15z/data=!3m1!4b1!4m5!3m4!1s0x3904b8cf2c5ca823:0x13fc1b0578356ada!8m2!3d32.0456253!4d76.7235513",32.0441591,76.7148149,,Biling,,India,
ELoc000103,"Blumenau, Brazil","https://www.google.com/maps/place/Blumenau,+State+of+Santa+Catarina,+Brazil/@-26.8562477,-49.239188,11z/data=!3m1!4b1!4m5!3m4!1s0x94df1e408b5c3095:0xacfb8520bc1a7644!8m2!3d-26.9165792!4d-49.0717331",-26.8562477,-49.239188,,Blumenau,,Brazil,
ELoc000104,"Blumenau, Southern Brazil","https://www.google.com/maps/place/Blumenau,+State+of+Santa+Catarina,+Brazil/@-26.8562477,-49.239188,11z/data=!3m1!4b1!4m5!3m4!1s0x94df1e408b5c3095:0xacfb8520bc1a7644!8m2!3d-26.9165792!4d-49.0717331",-26.8562477,-49.239188,,Blumenau,Southern Brazil,Brazil,
ELoc000105,Bobo-Forro (Sao Tome),"https://www.google.com/maps/search/Bobo-Forro+(Sao+Tome)/@15.8884056,78.5184688,7z/data=!3m1!4b1",15.8884056,78.5184688,Bobo-Forro (Sao Tome),,,,
ELoc000106,Bolivia,"https://www.google.com/maps/place/Bolivia/@-16.2256816,-68.0448814,6z/data=!3m1!4b1!4m5!3m4!1s0x915edf8977bba295:0x1c9ec2bb0115edbf!8m2!3d-16.290154!4d-63.588653",-16.2256816,-68.0448814,,,,Bolivia,
ELoc000107,"Bolivia Hill, NewSouth Wales","https://www.google.com/maps/place/Bolivia+Hill/@-29.3404181,151.8999945,15z/data=!3m1!4b1!4m5!3m4!1s0x6b98fa928380909b:0x2a41cce6ccdf594e!8m2!3d-29.3404375!4d151.9087493",-29.3404181,151.8999945,Bolivia Hill,,NewSouth Wales,Australia,
ELoc000108,"Bom Jesus, Africa","https://www.google.com/maps/place/Bom+Jesus,+Angola/@-9.1666455,13.5579122,15z/data=!3m1!4b1!4m5!3m4!1s0x1a4df63878fcb785:0xcabb34341b1e7f27!8m2!3d-9.166667!4d13.566667",-9.1666455,13.5579122,,Bom Jesus,,Africa,
ELoc000109,"Bom Jesus, Rio Grande do Sul State, South Brazil","https://www.google.com/maps/place/Bom+Jesus+-+RS,+95290-000,+Brazil/@-28.5451082,-50.673695,10z/data=!3m1!4b1!4m5!3m4!1s0x951f0a7cb5d5d22d:0xb00460368ccf2125!8m2!3d-28.666435!4d-50.4367063",-28.5451082,-50.673695,,Bom Jesus,Rio Grande do Sul State,Brazil,
ELoc000110,"Bonassola (La Spezia, Italy)","https://www.google.com/maps/place/19011+Bonassola,+SP,+Italy/@44.1832766,9.5800341,16z/data=!3m1!4b1!4m5!3m4!1s0x12d4ed0186d5c3c9:0xfd1aa009045f0705!8m2!3d44.1821302!4d9.5835215",44.1832766,9.5800341,,Bonassola,La Spezia,Italy,
ELoc000111,"Boone county, US","https://www.google.com/maps/place/Boone+County,+KY,+USA/@38.9625622,-84.8878339,11z/data=!3m1!4b1!4m5!3m4!1s0x8841c3c174237435:0xdc49f3103a757ce8!8m2!3d38.9940572!4d-84.7315563",38.9625622,-84.8878339,Boone county,,,US,
ELoc000112,"Bornhardita, Newsouth Wales","https://www.google.com/maps/search/Bornhardita,+Newsouth+Wales/@-32.4898829,141.0503678,5z/data=!3m1!4b1",-32.4898829,141.0503678,Bornhardita,,NewSouth Wales,Australia,
ELoc000113,Bosnia and Herzegovina,"https://www.google.com/maps/place/Bosnia+and+Herzegovina/@43.9130528,16.5519666,8z/data=!3m1!4b1!4m5!3m4!1s0x134ba215c737a9d7:0x6df7e20343b7e90c!8m2!3d43.915886!4d17.679076",43.9130528,16.5519666,,,,Bosnia and Herzegovina,
ELoc000114,"Botucatu, Brazil","https://www.google.com/maps/place/Botucatu,+State+of+S%C3%A3o+Paulo,+Brazil/@-22.8372761,-48.8258263,10z/data=!3m1!4b1!4m5!3m4!1s0x94c7260edd4e582b:0x798fe74168f8d19b!8m2!3d-22.8841808!4d-48.4441654",-22.8372761,-48.8258263,,Botucatu,Sao Paulo ,Brazil,
ELoc000115,Bratislava,"https://www.google.com/maps/place/Bratislava,+Slovakia/@48.1359244,16.9758342,11z/data=!3m1!4b1!4m5!3m4!1s0x476c89360aca6197:0x631f9b82fd884368!8m2!3d48.1485965!4d17.1077478",48.1359244,16.9758342,,,,Bratislava,
ELoc000116,"Bratislava, Slovakia","https://www.google.com/maps/place/Bratislava,+Slovakia/@48.1359244,16.9758342,11z/data=!3m1!4b1!4m5!3m4!1s0x476c89360aca6197:0x631f9b82fd884368!8m2!3d48.1485965!4d17.1077478",48.1359244,16.9758342,,Bratislava,,Slovakia,
ELoc000117,Brazil,"https://www.google.com/maps/place/Brazil/@-13.6614969,-69.6631525,4z/data=!3m1!4b1!4m5!3m4!1s0x9c59c7ebcc28cf:0x295a1506f2293e63!8m2!3d-14.235004!4d-51.92528",-13.6614969,-69.6631525,,,,Brazil,
ELoc000118,Brazil (Savannah),"https://www.google.com/maps/search/Brazil+(Savannah)/@32.0390575,-81.340363,11z/data=!3m1!4b1",32.0390575,-81.340363,,,Savannah,Brazil,
ELoc000119,Brazil.,"https://www.google.com/maps/place/Brazil/@-13.6614969,-69.6631525,4z/data=!3m1!4b1!4m5!3m4!1s0x9c59c7ebcc28cf:0x295a1506f2293e63!8m2!3d-14.235004!4d-51.92528",-13.6614969,-69.6631525,,,,Brazil,
ELoc000120,"Brisbane,Queensland","https://www.google.com/maps/place/Brisbane+QLD,+Australia/@-27.3812533,152.7130111,10z/data=!3m1!4b1!4m5!3m4!1s0x6b91579aac93d233:0x402a35af3deaf40!8m2!3d-27.4697707!4d153.0251235",-27.3812533,152.7130111,,Brisbane,Queensland,Australia,
ELoc000121,"Broadwater, New South Wales, Australia","https://www.google.com/maps/place/Broadwater+NSW+2472,+Australia/@-29.0357787,153.4009562,13z/data=!3m1!4b1!4m5!3m4!1s0x6b9a650f37956d83:0x40609b490441700!8m2!3d-28.9964992!4d153.4099288",-29.0357787,153.4009562,,Broadwater,New South Wales,Australia,
ELoc000122,"Bujaru, Brazil","https://www.google.com/maps/place/Bujaru+-+State+of+Par%C3%A1,+Brazil/@-1.6536794,-48.2188602,11z/data=!3m1!4b1!4m5!3m4!1s0x92a520aac21299b9:0xe9c2fa2a93e105c2!8m2!3d-1.5182824!4d-48.0370264",-1.6536794,-48.2188602,,Bujaru,,Brazil,
ELoc000123,"Bulahdelah (Southern form) NewSouth Wales, Australia","https://www.google.com/maps/search/Bulahdelah+(Southern+form)+NewSouth+Wales,+Australia/@-32.3313153,151.9394843,10z/data=!3m1!4b1",-32.3313153,151.9394843,,Bulahdelah (Southern form),NewSouth Wales,Australia,
ELoc000124,Bulgaria,"https://www.google.com/maps/place/Bulgaria/@42.7075286,23.30027,7z/data=!3m1!4b1!4m5!3m4!1s0x40a8fec1c85bf089:0xa01269bf4c10!8m2!3d42.733883!4d25.48583",42.7075286,23.30027,,,,Bulgaria,
ELoc000125,"Bundaburg,Queensland, Australia","https://www.google.com/maps/place/Bundaberg+Central+QLD+4670,+Australia/@-24.8676682,152.3474934,16z/data=!3m1!4b1!4m5!3m4!1s0x6bebb94a0e6c5953:0x500eef17f210bc0!8m2!3d-24.8669736!4d152.3509714",-24.8676682,152.3474934,,Bundaburg,Queensland,Australia,
ELoc000126,"Burgenland, Austria","https://www.google.com/maps/place/Burgenland,+Austria/@47.4741932,16.018089,9z/data=!3m1!4b1!4m5!3m4!1s0x476c20c30e4adcf1:0x98424bb7b83ee8fa!8m2!3d47.1537165!4d16.2688797",47.4741932,16.018089,,Burgenland,,Austria,
ELoc000127,Burkina Faso,"https://www.google.com/maps/place/Burkina+Faso/@12.2435193,-3.7986748,7z/data=!3m1!4b1!4m5!3m4!1s0xe2dca26d5a6709b:0x27930aed46836dab!8m2!3d12.238333!4d-1.561593",12.2435193,-3.7986748,,,,Burkina Faso,
ELoc000128,"Burkina Faso,Africa","https://www.google.com/maps/place/Burkina+Faso/@12.2435193,-3.7986748,7z/data=!3m1!4b1!4m5!3m4!1s0xe2dca26d5a6709b:0x27930aed46836dab!8m2!3d12.238333!4d-1.561593",12.2435193,-3.7986748,,Burkina Faso,,Africa,
ELoc000129,"Bushehr Province, Iran","https://www.google.com/maps/place/Bushehr+Province,+Iran/@28.7849706,50.3855765,8z/data=!3m1!4b1!4m5!3m4!1s0x3fb65cce55bcfdc1:0xa02439a52939ce8b!8m2!3d28.7620739!4d51.5150077",28.7849706,50.3855765,,Bushehr Province,,Iran,
ELoc000130,"Buzi, Australia","https://www.google.com/maps/search/Buzi,+Australia/@-9.7790045,-139.12106,11z",-9.7790045,-139.12106,,Buzi,,Australia,
ELoc000131,"CIMAP (Bangalore), India","https://www.google.com/maps/place/CSIR-Central+Institute+Of+Medicinal+and+Aromatic+Plants/@13.0854976,77.5899847,17z/data=!3m1!4b1!4m5!3m4!1s0x3bae186d00000001:0xd84c1f759ee9b476!8m2!3d13.0854924!4d77.5921734",13.0854976,77.5899847,CIMAP (Bangalore),(Bangalore),,India,
ELoc000132,"CIMAP (Lucknow), India","https://www.google.com/maps/search/CIMAP+(Lucknow),+India/@26.894787,80.9808511,17z/data=!3m1!4b1",26.894787,80.9808511,CIMAP,(Lucknow),,India,
ELoc000133,"CIMAP, Hyderabad, India","https://www.google.com/maps/place/Central+Institue+of+Medicinal+and+Aromatic+Plants/@17.4258968,78.5770082,17z/data=!3m1!4b1!4m5!3m4!1s0x3bcb9ea5bed23c01:0xa14a3fe1421928d7!8m2!3d17.4258917!4d78.5791969",17.4258968,78.5770082,CIMAP,Hyderabad,,India,
ELoc000134,"CIMAP, India","https://www.google.com/maps/search/CIMAP,+India/@21.2751503,70.2605087,5z/data=!3m1!4b1",21.2751503,70.2605087,CIMAP,,,India,
ELoc000135,"CSIR-IHBT Farm, India","https://www.google.com/maps/place/CSIR-Institute+of+Himalayan+Bioresource+Technology/@32.1051673,76.5542112,17z/data=!3m1!4b1!4m5!3m4!1s0x3904b3fc6d20da4d:0xed4ba6444433e089!8m2!3d32.1051628!4d76.5563999",32.1051673,76.5542112,,CSIR-IHBT Farm,,India,
ELoc000136,"Cabo de Gata, Cerro de S. Migue, Spain","https://www.google.com/maps/place/04150+Cabo+de+Gata,+Almer%C3%ADa,+Spain/@36.781923,-2.2462223,16z/data=!3m1!4b1!4m5!3m4!1s0xd7a91eac8d061b5:0xaf53b55570b95933!8m2!3d36.7817465!4d-2.2422484",36.781923,-2.2462223,,Cabo de Gata,Cerro de S. Migue,Spain,
ELoc000137,"Cachoeira do sul, Rio Grande do Sul State, South Brazil","https://www.google.com/maps/place/Cachoeira+do+Sul+-+RS,+Brazil/@-30.2351324,-53.2588196,10z/data=!3m1!4b1!4m5!3m4!1s0x9504a7b8b66c9ffd:0x6ce901c2777e4cce!8m2!3d-30.0218463!4d-52.9176936",-30.2351324,-53.2588196,,Cachoeira do sul,Rio Grande do Sul State,Brazil,
ELoc000138,"Cagliari, Italy","https://www.google.com/maps/place/Cagliari,+Province+of+Cagliari,+Italy/@39.2254656,9.0933586,13z/data=!3m1!4b1!4m5!3m4!1s0x12e73415b68e1ca3:0x201e1506cf816eb1!8m2!3d39.2238411!4d9.1216613",39.2254656,9.0933586,,Cagliari,,Italy,
ELoc000139,Cairo,"https://www.google.com/maps/place/Cairo,+Cairo+Governorate,+Egypt/@30.0595581,31.2234449,13z/data=!3m1!4b1!4m5!3m4!1s0x14583fa60b21beeb:0x79dfb296e8423bba!8m2!3d30.0444196!4d31.2357116",30.0595581,31.2234449,,,,Cairo,
ELoc000140,"Calicut University (Kerala), India","https://www.google.com/maps/search/Calicut+University+(Kerala),+India/@11.3826561,75.5775308,10z/data=!3m1!4b1",11.3826561,75.5775308,Calicut University (Kerala),,Kerala,India,
ELoc000141,"Calicut, India","https://www.google.com/maps/place/Kozhikode,+Kerala/@11.2559949,75.7407736,12z/data=!3m1!4b1!4m5!3m4!1s0x3ba65938563d4747:0x32150641ca32ecab!8m2!3d11.2587531!4d75.78041",11.2559949,75.7407736,,Calicut,,Brazil,
ELoc000142,California,"https://www.google.com/maps/search/California/@6.5750365,-75.661121,5z",6.5750365,-75.661121,,,,California,
ELoc000143,"California, USA","https://www.google.com/maps/place/California,+USA/@37.1930873,-123.7971927,6z/data=!3m1!4b1!4m5!3m4!1s0x808fb9fe5f285e3d:0x8b5109a227086f55!8m2!3d36.778261!4d-119.4179324",37.1930873,-123.7971927,,,California,USA,
ELoc000144,Callelongue (Marseille),"https://www.google.com/maps/place/Calanque+de+Callelongue/@43.2115178,5.3436072,15z/data=!3m1!4b1!4m5!3m4!1s0x12c9c7d32beee6c5:0x76688a911df28cb!8m2!3d43.211503!4d5.352362",43.2115178,5.3436072,Callelongue (Marseille),,,,
ELoc000145,"Camacha, Madeira Island.","https://www.google.com/maps/place/Camacha,+Portugal/@32.6803751,-16.8729647,14z/data=!3m1!4b1!4m5!3m4!1s0xc6061af6091e831:0xa56737142c670b2a!8m2!3d32.679852!4d-16.8502879",32.6803751,-16.8729647,,Camacha,,Madeira Island.,
ELoc000146,"Cambara do Sul, Southern Brazil","https://www.google.com/maps/place/Cambar%C3%A1+do+Sul+-+RS,+Brazil/@-29.0584349,-50.2833858,11z/data=!3m1!4b1!4m5!3m4!1s0x951f525726d241fb:0x5b65d061b8c3dfa3!8m2!3d-29.047902!4d-50.1442648",-29.0584349,-50.2833858,,Cambara do Sul,Southern Brazil,Brazil,
ELoc000147,Cambodia,"https://www.google.com/maps/place/Cambodia/@12.1417764,102.7363788,7z/data=!3m1!4b1!4m5!3m4!1s0x310787bfd4dc3743:0xe4b7bfe089f41253!8m2!3d12.565679!4d104.990963",12.1417764,102.7363788,,,,Cambodia,
ELoc000148,Cameroon,"https://www.google.com/maps/place/Cameroon/@7.3580984,7.796978,6z/data=!3m1!4b1!4m5!3m4!1s0x10613753703e0f21:0x2b03c44599829b53!8m2!3d7.369722!4d12.354722",7.3580984,7.796978,,,,Cameroon,
ELoc000149,Canada,"https://www.google.com/maps/place/Canada/@50.8892499,-130.1054782,3z/data=!3m1!4b1!4m5!3m4!1s0x4b0d03d337cc6ad9:0x9968b72aa2438fa5!8m2!3d56.130366!4d-106.346771",50.8892499,-130.1054782,,,,Canada,
ELoc000150,"Canada,USA","https://www.google.com/maps/search/Canada,USA/@42.6840686,-112.6031053,4z/data=!3m1!4b1",42.6840686,-112.6031053,,,,USA,
ELoc000151,Canari island,"https://www.google.com/maps/place/Canary+Islands,+Spain/@28.4308995,-18.0969997,7z/data=!3m1!4b1!4m5!3m4!1s0xc41aa86ef755363:0x10340f3be4bc8c0!8m2!3d28.2915637!4d-16.6291304",28.4308995,-18.0969997,,,Canari Island,Spain,
ELoc000152,"Cardigliano, Italy (39° 56’ 36.5” N, 18° 15’ 59.8” E, 174m)",,,,,Cardigliano,,Italy,
ELoc000153,"Castelbuono, Italy","https://www.google.com/maps/place/90013+Castelbuono,+Province+of+Palermo,+Italy/@37.9309178,14.0780832,15z/data=!3m1!4b1!4m5!3m4!1s0x1317302d811c61e3:0xb954ffda01f1e16!8m2!3d37.9329881!4d14.088775",37.9309178,14.0780832,,Castelbuono,,Italy,
ELoc000154,"Castro, Italy (40° 00’ 24.6” N, 18° 25’ 14.9” E, 169m)","https://www.google.com/maps/place/73030+Castro,+Province+of+Lecce,+Italy/@40.005493,18.4165026,15z/data=!3m1!4b1!4m5!3m4!1s0x13441334c2074a89:0xaa785a9545c4ab1d!8m2!3d40.0034139!4d18.4232636",40.005493,18.4165026,,Castro,,Italy,
ELoc000155,Caucasus,"https://www.google.com/maps/place/Caucasus/@42.5566387,39.1829513,6z/data=!3m1!4b1!4m5!3m4!1s0x405b11af05fe6659:0x842159602b3eabc0!8m2!3d43.5851814!4d45",42.5566387,39.1829513,,,,Caucasus,
ELoc000156,Ceara,"https://www.google.com/maps/place/State+of+Cear%C3%A1,+Brazil/@-5.3116809,-41.5825453,7z/data=!3m1!4b1!4m5!3m4!1s0x7bdb31827e686c5:0x3bb435e0af957842!8m2!3d-5.4983977!4d-39.3206241",-5.3116809,-41.5825453,,,,Ceara,
ELoc000157,Cearalpha- Brazil,"https://www.google.com/maps/search/Cearalpha-+Brazil/@32.9246502,10.4074855,13z/data=!3m1!4b1",32.9246502,10.4074855,,,Cearalpha,Brazil,
ELoc000158,Central Alps,,,,,Central Alps,,,
ELoc000159,Central Iran,"https://www.google.com/maps/place/Iran/@31.9929018,44.6761633,5z/data=!3m1!4b1!4m5!3m4!1s0x3ef7ec2ec16b1df1:0x40b095d39e51face!8m2!3d32.427908!4d53.688046",31.9929018,44.6761633,,,Central Iran,Iran,
ELoc000160,Central Lithuania,"https://www.google.com/maps/place/Lithuania/@55.1561221,21.6410106,7z/data=!3m1!4b1!4m5!3m4!1s0x46dd94140f33be13:0xf30a54d3a55dbab9!8m2!3d55.169438!4d23.881275",55.1561221,21.6410106,,,,Central Lithuania,
ELoc000161,Central Sardinia,"https://www.google.com/maps/place/Sardinia/@40.0583228,7.8578136,8z/data=!3m1!4b1!4m5!3m4!1s0x12ddc48d448d3591:0x339674b6e4ab6631!8m2!3d40.1208752!4d9.0128926",40.0583228,7.8578136,,,,Central Sardinia,
ELoc000162,"Centro de Investigación y Asistencia en Tecnología y Diseño del Estado de Jalisco (CIATEJ),Mexico","https://www.google.com/maps/place/Centro+de+Investigaci%C3%B3n+y+Asistencia+en+Tecnolog%C3%ADa+y+Dise%C3%B1o+del+Estado+de+Jalisco/@20.6938819,-103.3491104,17z/data=!3m1!4b1!4m5!3m4!1s0x8428b1c34c738925:0xfac854890b546a38!8m2!3d20.6938769!4d-103.3469217",20.6938819,-103.3491104,Centro de Investigación y Asistencia en Tecnología y Diseño del Estado de Jalisco (CIATEJ),,,Mexico,
ELoc000163,"Chakhutia (Almora), Uttarakhand, India (29°52'59.99N","https://www.google.com/maps/place/Chaukhutiya,+Uttarakhand+263656/@29.8871366,79.3464159,16z/data=!3m1!4b1!4m5!3m4!1s0x3909fd166aab0793:0xc269ecfc633788e1!8m2!3d29.883896!4d79.3488816",29.8871366,79.3464159,,Chakhutia (Almora),Uttarakhand,India,
ELoc000164,"Chania,Crete","https://www.google.com/maps/place/Chania,+Greece/@35.5076009,24.0072304,14z/data=!3m1!4b1!4m5!3m4!1s0x149c7dbee0cf3f3b:0x94b3557d79cd2ca8!8m2!3d35.5138298!4d24.0180367",35.5076009,24.0072304,,Chania,Crete,Greece,
ELoc000165,"Chapada Diamantina, Brazil","https://www.google.com/maps/place/Chapada+Diamantina/@-11.4960897,-41.2818104,15z/data=!3m1!4b1!4m5!3m4!1s0x76bfdf19f5a700f:0xfc44324d08f6d66c!8m2!3d-11.4961111!4d-41.2730556",-11.4960897,-41.2818104,,Chapada Diamantina,,Brazil,
ELoc000166,"Chaukhutiya, Uttarakhand, India (79° 35’N, 29° 88’E, 952m)","https://www.google.com/maps/place/Chaukhutiya,+Uttarakhand+263656/@29.8871366,79.3464159,16z/data=!3m1!4b1!4m5!3m4!1s0x3909fd166aab0793:0xc269ecfc633788e1!8m2!3d29.883896!4d79.3488816",29.8871366,79.3464159,,Chaukhutiya,Uttarakhand,India,
ELoc000167,"Chennai, India","https://www.google.com/maps/place/Chennai,+Tamil+Nadu/@13.0478223,80.0689261,11z/data=!3m1!4b1!4m5!3m4!1s0x3a5265ea4f7d3361:0x6e61a70b6863d433!8m2!3d13.0826802!4d80.2707184",13.0478223,80.0689261,,Chennai,,India,
ELoc000168,Chihuahuan Desert,"https://www.google.com/maps/search/Chihuahuan+Desert/@31.505916,-106.4166222,8z/data=!3m1!4b1",31.505916,-106.4166222,Chihuahuan Desert,,,Maxico,
ELoc000169,Chile,"https://www.google.com/maps/place/Chile/@-35.4107647,-106.2186885,4z/data=!3m1!4b1!4m5!3m4!1s0x9662c5410425af2f:0x505e1131102b91d!8m2!3d-35.675147!4d-71.542969",-35.4107647,-106.2186885,,,,Chile,
ELoc000170,China,"https://www.google.com/maps/place/China/@34.4534034,86.0657257,4z/data=!3m1!4b1!4m5!3m4!1s0x31508e64e5c642c1:0x951daa7c349f366f!8m2!3d35.86166!4d104.195397",34.4534034,86.0657257,,,,China,
ELoc000171,"Chubut Province, Argentina","https://www.google.com/maps/place/Chubut+Province,+Argentina/@-43.9011158,-72.3773896,6z/data=!3m1!4b1!4m5!3m4!1s0xbde2a3c6a2577047:0xdad4458e4b26a228!8m2!3d-43.2934246!4d-65.1114818",-43.9011158,-72.3773896,,,Chubut Province,Argentina,
ELoc000172,"Cocalzinho, Brazil","https://www.google.com/maps/place/Cocalzinho+de+Goi%C3%A1s+-+State+of+Goi%C3%A1s,+72975-000,+Brazil/@-15.6357241,-48.8347425,10z/data=!3m1!4b1!4m5!3m4!1s0x935b9ad5c308b967:0xf2f69ebfef2e4cc1!8m2!3d-15.7785783!4d-48.7673179",-15.6357241,-48.8347425,,Cocalzinho,,Brazil,
ELoc000173,"Cocalzinho,Ceara","https://www.google.com/maps/search/Cocalzinho,Ceara/@-9.3101369,-47.5516381,6z/data=!3m1!4b1",-9.3101369,-47.5516381,,Cocalzinho,Ceara,Brazil,
ELoc000174,Cochabamba,"https://www.google.com/maps/place/Cochabamba,+Bolivia/@-17.3938831,-66.2339157,12z/data=!3m1!4b1!4m5!3m4!1s0x93e373e0d9e4ab27:0xa2719ae9532c3e65!8m2!3d-17.4139766!4d-66.1653224",-17.3938831,-66.2339157,,,,Cochabamba,
ELoc000175,"Cochabamba, Bolivia","https://www.google.com/maps/place/Cochabamba,+Bolivia/@-17.3938831,-66.2339157,12z/data=!3m1!4b1!4m5!3m4!1s0x93e373e0d9e4ab27:0xa2719ae9532c3e65!8m2!3d-17.4139766!4d-66.1653224",-17.3938831,-66.2339157,,Cochabamba,,Bolivia,
ELoc000176,Colombia,"https://www.google.com/maps/place/Colombia/@4.6098583,-83.3818973,5z/data=!3m1!4b1!4m5!3m4!1s0x8e15a43aae1594a3:0x9a0d9a04eff2a340!8m2!3d4.570868!4d-74.297333",4.6098583,-83.3818973,,,,Colombia,
ELoc000177,Comoros,"https://www.google.com/maps/place/Comoros/@-11.9011488,43.3203051,9z/data=!3m1!4b1!4m5!3m4!1s0x1898e3036408a48d:0xf70a7fbee4dfd4db!8m2!3d-11.6455!4d43.3333",-11.9011488,43.3203051,,,,Comoros,
ELoc000178,"Cook's River, near Canterbury, New South Wales, Australia","https://www.google.com/maps/place/Cooks+River/@-33.9215582,151.0907426,13z/data=!3m1!4b1!4m5!3m4!1s0x6b12ba7160dade5d:0xb6ac46d4890e7a97!8m2!3d-33.9163828!4d151.1296809",-33.9215582,151.0907426,Cook's River,near Canterbury,New South Wales,Australia,
ELoc000179,"Coos county, Oregon","https://www.google.com/maps/place/Coos+County,+OR,+USA/@43.1383903,-124.6875128,9z/data=!3m1!4b1!4m5!3m4!1s0x54c3e678104a7ed9:0xcb53af1550134d34!8m2!3d43.242897!4d-124.105737",43.1383903,-124.6875128,,Coos county,,Oregon,
ELoc000180,"Copmanhurst, New South Wales, Australia","https://www.google.com/maps/place/Copmanhurst+NSW+2460,+Australia/@-29.5752415,152.7620039,13z/data=!3m1!4b1!4m5!3m4!1s0x6b997d53317f3325:0x40609b490441830!8m2!3d-29.5767793!4d152.7970637",-29.5752415,152.7620039,,Copmanhurst,New South Wales,Australia,
ELoc000181,"Copperbelt Province, Zambia","https://www.google.com/maps/place/Copperbelt+Province,+Zambia/@-13.0664105,26.7893738,8z/data=!3m1!4b1!4m5!3m4!1s0x196b80ff6337785f:0xd770a20ca96fbf95!8m2!3d-13.0570073!4d27.5495846",-13.0664105,26.7893738,,,Copperbelt Province,Zambia,
ELoc000182,"Coraki,NewSouth Wales, Australia","https://www.google.com/maps/place/Coraki+NSW+2471,+Australia/@-28.9869173,153.2396733,13z/data=!3m1!4b1!4m5!3m4!1s0x6b9a72112d322a91:0x40609b490441840!8m2!3d-28.993391!4d153.2816992",-28.9869173,153.2396733,,Coraki,NewSouth Wales,Australia,
ELoc000183,"Corani Pampa, Chapare","https://www.google.com/maps/place/Corani+-+Pampa,+Bolivia/@-17.1243141,-65.938536,16z/data=!3m1!4b1!4m5!3m4!1s0x93e3866c0c2a5595:0xdc6b166407aaa248!8m2!3d-17.1245756!4d-65.9341033",-17.1243141,-65.938536,Corani Pampa,Chapare,,Bolivia,
ELoc000184,"Corsica, France","https://www.google.com/maps/place/Corsica,+France/@42.1771892,7.9263007,8z/data=!3m1!4b1!4m5!3m4!1s0x12d72403b09b0971:0xa88522ec71a1cb8d!8m2!3d42.0396042!4d9.0128926",42.1771892,7.9263007,,Corsica,,France,
ELoc000185,Costa Rica,"https://www.google.com/maps/place/Costa+Rica/@8.3570108,-87.0529415,7z/data=!3m1!4b1!4m5!3m4!1s0x8f92e56221acc925:0x6254f72535819a2b!8m2!3d9.748917!4d-83.753428",8.3570108,-87.0529415,,,,Costa Rica,
ELoc000186,"Costa Rica, Province of San Jose","https://www.google.com/maps/place/San+Jos%C3%A9+Province,+Costa+Rica/@9.635158,-84.5570123,9z/data=!3m1!4b1!4m5!3m4!1s0x8fa0e342c50d15c5:0xff8eac296443e836!8m2!3d9.9129727!4d-84.0768294",9.635158,-84.5570123,,Province of San Jose,,Costa Rica,
ELoc000187,"Costa Rica, Spain",,,,,Costa Rica,,Spain,
ELoc000188,"Crescent Head, New South Wales, Australia","https://www.google.com/maps/place/Crescent+Head+NSW+2440,+Australia/@-31.2138953,152.8585502,12z/data=!3m1!4b1!4m5!3m4!1s0x6b9de0d57a4f3b7b:0x40609b4904394e0!8m2!3d-31.1861501!4d152.9132368",-31.2138953,152.8585502,Crescent Head,,New South Wales,Australia,
ELoc000189,Croatia,"https://www.google.com/maps/place/Croatia/@44.4287219,14.1635733,7z/data=!3m1!4b1!4m5!3m4!1s0x133441080add95ed:0xa0f3c024e1661b7f!8m2!3d45.1!4d15.2000001",44.4287219,14.1635733,,,,Croatia,
ELoc000190,Cuba,"https://www.google.com/maps/place/Cuba/@21.4653436,-84.0579661,6z/data=!3m1!4b1!4m5!3m4!1s0x88cd49070f7a4cb5:0x798cf7529110a41a!8m2!3d21.521757!4d-77.781167",21.4653436,-84.0579661,,,,cuba,
ELoc000191,"Curionopolis, Brazil","https://www.google.com/maps/place/Curion%C3%B3polis+-+State+of+Par%C3%A1,+Brazil/@-6.2493433,-49.9016894,10z/data=!3m1!4b1!4m5!3m4!1s0x92dd307ad6178533:0x5cb713525b9ad541!8m2!3d-6.1045764!4d-49.6017418",-6.2493433,-49.9016894,,Curionopolis,Para,Brazil,
ELoc000192,"Curitiba, Southern Brazil","https://www.google.com/maps/place/Curitiba+-+State+of+Paran%C3%A1,+Brazil/@-25.4956847,-49.4273661,11z/data=!3m1!4b1!4m5!3m4!1s0x94dce3f5fc090ff1:0x3c7a83b0092bb747!8m2!3d-25.4808762!4d-49.3044253",-25.4956847,-49.4273661,,Curitiba,Southern Brazil,Brazil,
ELoc000193,"Currowan of the southern district of New South Wales, Australia","https://www.google.com/maps/place/Currowan+NSW+2536,+Australia/@-35.571118,150.0275384,12z/data=!3m1!4b1!4m5!3m4!1s0x6b15c4af05584733:0x40609b4904408c0!8m2!3d-35.5700256!4d150.0586545",-35.571118,150.0275384,Currowan of the southern district of New South Wales,,,Australia,
ELoc000194,Cyprus,"https://www.google.com/maps/place/Cyprus/@35.1658814,32.3040452,8z/data=!3m1!4b1!4m5!3m4!1s0x14de1767ca494d55:0x324c3c807fc4146e!8m2!3d35.126413!4d33.429859",35.1658814,32.3040452,,,,Cyprus,
ELoc000195,Cyrenaica Region,,,,Cyrenaica Region,,Cyrenaica Region,Libiya,
ELoc000196,"Dakal-e-Derazno, Golestan","https://www.google.com/maps/search/Dakal-e-Derazno,+Golestan/@36.6686168,54.1447341,17z/data=!3m1!4b1",36.6686168,54.1447341,,Dakal-e-Derazno,,Golestan,
ELoc000197,"Dalmatia, Croatia","https://www.google.com/maps/search/Dalmatia,+Croatia/@43.2459325,15.214117,8z/data=!3m1!4b1",43.2459325,15.214117,,Dalmatia,,Croatia,
ELoc000198,"Damavand Province of Tehran, Iran","https://www.google.com/maps/place/Damavand,+Tehran+Province,+Iran/@35.7087312,52.0100624,13z/data=!3m1!4b1!4m5!3m4!1s0x3f9033ab1d1378cd:0x5e887df7b2bc3e86!8m2!3d35.7013041!4d52.0586252",35.7087312,52.0100624,,,Damavand Province of Tehran,Iran,
ELoc000199,"Debdeb commune,Illizi province, Algeria","https://www.google.com/maps/place/Debdeb,+Algeria/@29.9885703,9.3902416,13z/data=!3m1!4b1!4m5!3m4!1s0x124c0fac8d814533:0xf90eb194f24dd6b6!8m2!3d29.9672147!4d9.422346",29.9885703,9.3902416,,Debdeb commune,Illizi province,Algeria,
ELoc000200,Dehradun,"https://www.google.com/maps/place/Dehradun,+Uttarakhand/@30.325558,77.9470946,12z/data=!3m1!4b1!4m5!3m4!1s0x390929c356c888af:0x4c3562c032518799!8m2!3d30.3164945!4d78.0321918",30.325558,77.9470946,,Dehradun,,India,
ELoc000201,"Delta  State, Nigeria","https://www.google.com/maps/place/Delta,+Nigeria/@5.7581594,5.3154098,9z/data=!3m1!4b1!4m5!3m4!1s0x1041ab420d2c3d21:0x1b87c06f404c7069!8m2!3d5.5324624!4d5.8987139",5.7581594,5.3154098,,Delta  State,,Nigeria,
ELoc000202,Denmark,"https://www.google.com/maps/place/Denmark/@56.2128567,9.3003151,7z/data=!3m1!4b1!4m5!3m4!1s0x464b27b6ee945ffb:0x528743d0c3e092cd!8m2!3d56.26392!4d9.501785",56.2128567,9.3003151,,,,Denmark,
ELoc000203,"Derdap gorge, Serbia","https://www.google.com/maps/search/Derdap+gorge,+Serbia/@44.6042822,21.9822779,10z/data=!3m1!4b1",44.6042822,21.9822779,,Derdap gorge,,Serbia,
ELoc000204,"Derrubadas, Rio Grande do Sul","https://www.google.com/maps/place/Derrubadas+-+RS,+98528-000,+Brazil/@-27.2292053,-54.0489694,11z/data=!3m1!4b1!4m5!3m4!1s0x94fbce2a593e499b:0x9c4b27cb4c9a6d2e!8m2!3d-27.2648492!4d-53.8613598",-27.2292053,-54.0489694,,Derrubadas,Rio Grande do Sul,Brazil,
ELoc000205,"Dharchula (Pithoragarh), Uttarakhand, India (29°50'50.42N","https://www.google.com/maps/place/Dharchula,+Uttarakhand/@29.8443379,80.5287551,15z/data=!3m1!4b1!4m5!3m4!1s0x39a6b573c6633f23:0xe5294e6e3f79fbd4!8m2!3d29.8473422!4d80.5369058",29.8443379,80.5287551,,Dharchula (Pithoragarh),Uttarakhand,India,
ELoc000206,"Dhargala, India","https://www.google.com/maps/place/Dhargala,+Himachal+Pradesh+171225/@31.2825397,77.6171379,15z/data=!3m1!4b1!4m5!3m4!1s0x3905ec6be9cea273:0x3cc78f3073b619e7!8m2!3d31.2825222!4d77.6258927",31.2825397,77.6171379,,Dhargala,,India,
ELoc000207,"Different countries ( Belgium, Czech, France, Hungary, Germany, Greece, Latvia, Lithuania, Moldova, Russia, Scotland, Ukraine",,,,,,," ( Belgium, Czech, France, Hungary, Germany, Greece, Latvia, Lithuania, Moldova, Russia, Scotland, Ukraine)",
ELoc000208,"Dimbulah (Queensland), India",,,,,,,,
ELoc000209,Divjake (Albania),"https://www.google.com/maps/place/Divjak%C3%AB,+Albania/@40.9976977,19.5192933,15z/data=!3m1!4b1!4m5!3m4!1s0x134ffd1456794c15:0x1188bd7dde4f08dc!8m2!3d40.996725!4d19.5270566",40.9976977,19.5192933,,Divjake,,Albania,
ELoc000210,"Diwalikhal, India","https://www.google.com/maps/search/Diwalikhal,+India,uttarakhand/@30.0799898,78.1904218,8z/data=!3m1!4b1",30.0799898,78.1904218,,Diwalikhal,,India,
ELoc000211,"Diyarbakir, Turkey","https://www.google.com/maps/place/Diyarbak%C4%B1r,+Turkey/@37.9229071,40.092638,12z/data=!3m1!4b1!4m5!3m4!1s0x40751fa80abac46b:0x53070c279310852c!8m2!3d37.9249733!4d40.2109826",37.9229071,40.092638,,Diyarbakir,,Turkey,
ELoc000212,"Doba (Southern Chad), France","https://www.google.com/maps/search/Doba+(Southern+Chad),+France/@47.371585,-63.3066229,8z",47.371585,-63.3066229,,Doba,Logone Oriental Region,Chad,
ELoc000213,"Dom Pedro de Alcantara, Brazil","https://www.google.com/maps/place/Dom+Pedro+de+Alc%C3%A2ntara,+RS,+95568-000,+Brazil/@-29.3643563,-49.8622592,15z/data=!3m1!4b1!4m5!3m4!1s0x95226e0218621a9d:0x5a3010f2d56b7597!8m2!3d-29.3643758!4d-49.8535044",-29.3643563,-49.8622592,,Dom Pedro de Alcantara,,Brazil,
ELoc000214,"Dom Pedro de Alcantara, Southern Brazil","https://www.google.com/maps/place/Dom+Pedro+de+Alc%C3%A2ntara,+RS,+95568-000,+Brazil/@-29.3643563,-49.8622592,15z/data=!3m1!4b1!4m5!3m4!1s0x95226e0218621a9d:0x5a3010f2d56b7597!8m2!3d-29.3643758!4d-49.8535044",-29.3643563,-49.8622592,,Dom Pedro de Alcantara,Southern Brazil,Brazil,
ELoc000215,Domokos (Central Greece),"https://www.google.com/maps/place/Domokos+350+10,+Greece/@39.1259988,22.2959007,15z/data=!3m1!4b1!4m5!3m4!1s0x1358b45e5d1eca91:0x64bdaf82f15618fe!8m2!3d39.1288319!4d22.2984478",39.1259988,22.2959007,,Domokos,,Central Greece,
ELoc000216,"Dourados, Brazil","https://www.google.com/maps/place/Dourados+-+State+of+Mato+Grosso+do+Sul,+Brazil/@-22.1586032,-55.4217321,9z/data=!3m1!4b1!4m5!3m4!1s0x9489a837deb5ce27:0x67287c086367eaf8!8m2!3d-22.2272034!4d-54.8291259",-22.1586032,-55.4217321,,Dourados,,Brazil,
ELoc000217,Dschang,"https://www.google.com/maps/place/Dschang,+Cameroon/@5.4528117,10.0268691,13z/data=!3m1!4b1!4m5!3m4!1s0x105fb05d4a33d4e3:0x895cbe062331d38c!8m2!3d5.4459387!4d10.0471549",5.4528117,10.0268691,,,,Dschang,
ELoc000218,"Dschang,Cameroon","https://www.google.com/maps/place/Dschang,+Cameroon/@5.4528117,10.0268691,13z/data=!3m1!4b1!4m5!3m4!1s0x105fb05d4a33d4e3:0x895cbe062331d38c!8m2!3d5.4459387!4d10.0471549",5.4528117,10.0268691,,Dschang,,Cameroon,
ELoc000219,Dubrovnik region (south Croatia),"https://www.google.com/maps/place/Dubrovnik,+Croatia/@42.645815,18.0590278,13z/data=!3m1!4b1!4m5!3m4!1s0x134b8ba20835e87d:0x400ad50862bd500!8m2!3d42.6506606!4d18.0944238",42.645815,18.0590278,,Dubrovnik region,South Croatia,Croatia,
ELoc000220,"Dunda (Uttarkashi), Uttarakhand, India (30°42'11.63N","https://www.google.com/maps/place/Dunda+Range,+Uttarakhand+249151/@30.7056262,78.3472779,16z/data=!3m1!4b1!4m5!3m4!1s0x3908eb109cb9974b:0x57f827a612ade960!8m2!3d30.7088449!4d78.3536825",30.7056262,78.3472779,,Dunda (Uttarkashi),Uttarakhand,India,
ELoc000221,"Durmitor mountain, Montenegro","https://www.google.com/maps/place/Bobotov+Kuk/@43.1278112,19.0254668,15z/data=!3m1!4b1!4m5!3m4!1s0x134d3d0298685e25:0x1427e9f0ec0cdffe!8m2!3d43.1277964!4d19.0342216",43.1278112,19.0254668,Durmitor mountain,,,Montenegro,
ELoc000222,"EI Cristo, Cuba","https://www.google.com/maps/search/EI+Cristo,+Cuba/@21.6140235,-81.285977,7z/data=!3m1!4b1",21.6140235,-81.285977,,EI Cristo,,Cuba,
ELoc000223,"EI-Orman Botanical Garden (Giza), Egypt","https://www.google.com/maps/place/Orman+Botanical+Garden/@30.0290431,31.2107882,17z/data=!3m1!4b1!4m5!3m4!1s0x145846d779c67517:0xb32950d9822d308a!8m2!3d30.0290385!4d31.2129769",30.0290431,31.2107882,EI-Orman Botanical Garden (Giza),(Giza),,Egypt,
ELoc000224,"East of Tehran,Khojir Park, Iran","https://www.google.com/maps/place/Khojir/@35.6880722,51.6818008,15z/data=!3m1!4b1!4m5!3m4!1s0x3f91ddfc4e68ca73:0xd63fa9708aab6712!8m2!3d35.6880556!4d51.6905556",35.6880722,51.6818008,East of Tehran,Khojir Park,Iran,Iran,
ELoc000225,Eastern Lithuania,"https://www.google.com/maps/place/Lithuania/@55.1561221,21.6410106,7z/data=!3m1!4b1!4m5!3m4!1s0x46dd94140f33be13:0xf30a54d3a55dbab9!8m2!3d55.169438!4d23.881275",55.1561221,21.6410106,Eastern Lithuania,,,Lithuania,
ELoc000226,Eastern Serbia,"https://www.google.com/maps/place/Visit+East+Serbia/@43.9035093,22.2780831,17z/data=!3m1!4b1!4m5!3m4!1s0x475473705e4edb3b:0x34385173386131cc!8m2!3d43.9035055!4d22.2802718",43.9035093,22.2780831,,,,Serbia,
ELoc000227,Eastern Turkey,"https://www.google.com/maps/search/Eastern+Turkey/@28.5568743,77.1160946,12z/data=!3m1!4b1",28.5568743,77.1160946,,,,Eastern Turkey,
ELoc000228,Ecuadorador,"https://www.google.com/maps/search/Ecuadorador/@46.5941575,-120.6181297,12z/data=!3m1!4b1",46.5941575,-120.6181297,,,,Ecuadorador,
ELoc000229,"Edirne, Turkey","https://www.google.com/maps/place/Edirne,+Edirne+Merkez%2FEdirne,+Turkey/@41.6689344,26.538305,13z/data=!3m1!4b1!4m5!3m4!1s0x14b32f77a26304e1:0xa0cfc0ca431c30bc!8m2!3d41.6771297!4d26.5557145",41.6689344,26.538305,,Edirne,,Turkey,
ELoc000230,Egypt,"https://www.google.com/maps/place/Egypt/@26.8448032,26.3831652,6z/data=!3m1!4b1!4m5!3m4!1s0x14368976c35c36e9:0x2c45a00925c4c444!8m2!3d26.820553!4d30.802498",26.8448032,26.3831652,,,,Egypt,
ELoc000231,Elbasan (Albania),"https://www.google.com/maps/place/Elbasan,+Albania/@41.1092588,20.0538536,13z/data=!3m1!4b1!4m5!3m4!1s0x135043008278d315:0x4243327c8f696e0a!8m2!3d41.11023!4d20.0866554",41.1092588,20.0538536,,Elbasan,,Albania,
ELoc000232,England,"https://www.google.com/maps/place/England,+UK/@52.7602293,-6.8129144,6z/data=!3m1!4b1!4m5!3m4!1s0x47d0a98a6c1ed5df:0xf4e19525332d8ea8!8m2!3d52.3555177!4d-1.1743197",52.7602293,-6.8129144,,,,England,
ELoc000233,"Enoggera Creek, Queensland","https://www.google.com/maps/place/Queensland,+Australia/@-18.9524398,136.7950269,5z/data=!3m1!4b1!4m5!3m4!1s0x6bd4df247a62dcfd:0xf5f2d0227612be99!8m2!3d-20.9175738!4d142.7027956",-18.9524398,136.7950269,,Enoggera Creek,Queensland,Australia,
ELoc000234,"Entre Rios, Argentina","https://www.google.com/maps/place/Entre+Rios,+Argentina/@-32.0752141,-61.5333203,7z/data=!3m1!4b1!4m5!3m4!1s0x95a551ddba482fbf:0x69284bf0dcd46382!8m2!3d-31.7746654!4d-60.4956461",-32.0752141,-61.5333203,,Entre Rios,,Argentina,
ELoc000235,"Erzincan, Turkey","https://www.google.com/maps/place/Erzincan,+Erzincan+Merkez%2FErzincan,+Turkey/@39.7471352,39.468889,13z/data=!3m1!4b1!4m5!3m4!1s0x40700cc900531deb:0x1fb8de6e1302e7a9!8m2!3d39.746797!4d39.491124",39.7471352,39.468889,,Erzincan,,Turkey,
ELoc000236,"Erzurum, Turkey","https://www.google.com/maps/place/Erzurum,+Turkey/@39.9119606,41.2284971,13z/data=!3m1!4b1!4m5!3m4!1s0x406e5f28a5eb94f1:0x10e3fd56abbfb86!8m2!3d39.9054993!4d41.2658236",39.9119606,41.2284971,,Erzurum,,Turkey,
ELoc000237,"Eskisehir, Turkey","https://www.google.com/maps/place/Eski%C5%9Fehir,+Eski%C5%9Fehir+Province,+Turkey/@39.7655227,30.4047307,11z/data=!3m1!4b1!4m5!3m4!1s0x14cc3e08220c0e5f:0xbc89395938049a08!8m2!3d39.7667061!4d30.5256311",39.7655227,30.4047307,,Eskisehir,,Turkey,
ELoc000238,"Esquel city, Argentina","https://www.google.com/maps/place/Esquel,+Chubut+Province,+Argentina/@-42.912059,-71.3571894,13z/data=!3m1!4b1!4m5!3m4!1s0x961dac39e7401099:0x7778716e39146c20!8m2!3d-42.9095281!4d-71.3143117",-42.912059,-71.3571894,,Esquel city,,Argentina,
ELoc000239,Estonia,"https://www.google.com/maps/place/Estonia/@58.6037626,22.6900838,7z/data=!3m1!4b1!4m5!3m4!1s0x4692949c82a04bfd:0x40ea9fba4fb425c3!8m2!3d58.595272!4d25.0136071",58.6037626,22.6900838,,,,Estonia,
ELoc000240,"Estonia,Russia","https://www.google.com/maps/search/Estonia,Russia/@58.904775,25.3535342,8z/data=!3m1!4b1",58.904775,25.3535342,,Estonia,,Russia,
ELoc000241,Ethiopia,"https://www.google.com/maps/place/Ethiopia/@9.1323566,36.0025107,6z/data=!3m1!4b1!4m5!3m4!1s0x1635d0cedd6cfd2b:0x7bf6a67f5348c55a!8m2!3d9.145!4d40.489673",9.1323566,36.0025107,,,,Ethiopia,
ELoc000242,"Etna mount, Italy","https://www.google.com/maps/place/Mt+Etna/@37.7510211,14.9846801,15z/data=!3m1!4b1!4m5!3m4!1s0x1316aa3714a7a0eb:0x1d0b042aa5c52a70!8m2!3d37.751005!4d14.9934349",37.7510211,14.9846801,,Etna mount,,Italy,
ELoc000243,Europe,"https://www.google.com/maps/place/Europe/@48.1306539,4.1619656,4z/data=!3m1!4b1!4m5!3m4!1s0x46ed8886cfadda85:0x72ef99e6b3fcf079!8m2!3d54.5259614!4d15.2551187",48.1306539,4.1619656,,,,Europe,
ELoc000244,"Ewe Forest (Ketore), Benin",,,,Ewe Forest,,,Benin,
ELoc000245,"FRIM (Kepong), Malaysia",,,,,,,,
ELoc000246,"Farahabad, Iran","https://www.google.com/maps/place/Farahabad,+Amol,+Khazar+Abad,+Mazandaran+Province,+Iran/@36.7920584,53.1032372,15z/data=!3m1!4b1!4m5!3m4!1s0x3f850c15665f8483:0xcc0203a63c8b797c!8m2!3d36.792042!4d53.111992",36.7920584,53.1032372,,Farahabad,,Iran,
ELoc000247,Fars province of Iran,"https://www.google.com/maps/place/Fars+Province,+Iran/@29.44177,50.8560729,7z/data=!3m1!4b1!4m5!3m4!1s0x3fad1ab12c44349d:0x4a126948af75bf84!8m2!3d29.1043813!4d53.045893",29.44177,50.8560729,,,Fars province of Iran,Iran,
ELoc000248,"Fars province, Iran","https://www.google.com/maps/place/Fars+Province,+Iran/@29.44177,50.8560729,7z/data=!3m1!4b1!4m5!3m4!1s0x3fad1ab12c44349d:0x4a126948af75bf84!8m2!3d29.1043813!4d53.045893",29.44177,50.8560729,,Fars province,,Iran,
ELoc000249,"Fars, Iran","https://www.google.com/maps/place/Fars+Province,+Iran/@29.44177,50.8560729,7z/data=!3m1!4b1!4m5!3m4!1s0x3fad1ab12c44349d:0x4a126948af75bf84!8m2!3d29.1043813!4d53.045893",29.44177,50.8560729,,Fars,,Iran,
ELoc000250,"Fianarantosa, Madagascar","https://www.google.com/maps/place/Fianarantsoa,+Madagascar/@-21.4476028,47.0507521,13z/data=!3m1!4b1!4m5!3m4!1s0x21e7bec0717f0aab:0xbab89234313f05ed!8m2!3d-21.4546147!4d47.0875045",-21.4476028,47.0507521,,Fianarantosa,,Madagascar,
ELoc000251,Fiji,"https://www.google.com/maps/place/Fiji/@-16.4954747,174.9662381,6z/data=!3m1!4b1!4m5!3m4!1s0x6e1990fd703cdc5d:0x9e9c319946ef5b93!8m2!3d-17.713371!4d178.065032",-16.4954747,174.9662381,,,,Fiji,
ELoc000252,Finland,"https://www.google.com/maps/place/Finland/@64.6327466,17.0896734,5z/data=!3m1!4b1!4m5!3m4!1s0x4681cadf4b32f6dd:0x146d63c75a810!8m2!3d61.92411!4d25.7481511",64.6327466,17.0896734,,,,Finland,
ELoc000253,"Firouzkouh, Tehran, Iran","https://www.google.com/maps/place/Firuzkuh,+Tehran+Province,+Iran/@35.7570629,52.7556218,14z/data=!3m1!4b1!4m5!3m4!1s0x3f9a9c65673b8b45:0x47b6ae813707cc15!8m2!3d35.7549861!4d52.7723553",35.7570629,52.7556218,,Firouzkou,Tehran,Iran,
ELoc000254,"Florianopolis, Brazil","https://www.google.com/maps/place/Florian%C3%B3polis+-+State+of+Santa+Catarina,+Brazil/@-27.6158003,-48.6227596,11z/data=!3m1!4b1!4m5!3m4!1s0x952749bfe17eb89f:0xd3d6e34c9fba2a18!8m2!3d-27.5948698!4d-48.5482195",-27.6158003,-48.6227596,,Florianopolis,,Brazil,
ELoc000255,Florida,"https://www.google.com/maps/place/Florida,+USA/@27.5320965,-88.2980909,6z/data=!3m1!4b1!4m5!3m4!1s0x88c1766591562abf:0xf72e13d35bc74ed0!8m2!3d27.6648274!4d-81.5157535",27.5320965,-88.2980909,,,,Florida,
ELoc000256,"Forestry Department, Brishane","https://www.google.com/maps/search/Forestry+Department,+Brishane/@-27.4425103,153.0254233,13z/data=!3m1!4b1",-27.4425103,153.0254233,Forestry Department,Brisbane,,Australia,
ELoc000257,"Foret Islane, Tensift Al Haouz- Marrakech (2000 m)","https://www.google.com/maps/search/Foret+Islane,+Tensift+Al+Haouz-+Marrakech+(2000+m)/@31.7916682,-9.5365119,8z/data=!3m1!4b1",31.7916682,-9.5365119,Foret Islane,Tensift Al Haouz- Marrakech (2000 m),Marrakesh,Morocco,
ELoc000258,"Forti (Champawat), Uttarakhand, India (29°19'15.38N","https://www.google.com/maps/place/Forti,+Uttarakhand+262524/@29.3934833,80.0677602,15z/data=!3m1!4b1!4m5!3m4!1s0x39a0e03f8d5dc421:0x5d60b02f1f8afea6!8m2!3d29.3918516!4d80.0730491",29.3934833,80.0677602,,Forti (Champawat),Uttarakhand,India,
ELoc000259,France,"https://www.google.com/maps/place/France/@46.1390077,-2.4357951,6z/data=!3m1!4b1!4m5!3m4!1s0xd54a02933785731:0x6bfd3f96c747d9f7!8m2!3d46.227638!4d2.213749",46.1390077,-2.4357951,,,,France,
ELoc000260,"Frazer Island, Queensland","https://www.google.com/maps/place/Fraser+Island/@-25.2449101,152.5909842,9z/data=!3m1!4b1!4m5!3m4!1s0x6bec611ec3c665f1:0x958afa2ce4c59bca!8m2!3d-25.2398229!4d153.1325243",-25.2449101,152.5909842,Frazer Island,Queensland,,Australia,
ELoc000261,French Guiana,"https://www.google.com/maps/place/French+Guiana/@4.0340153,-54.2067555,8z/data=!3m1!4b1!4m5!3m4!1s0x8d12155785f7d753:0xde27f7e90f0af446!8m2!3d3.933889!4d-53.125782",4.0340153,-54.2067555,,,,French Guiana,
ELoc000262,French Polynesia,"https://www.google.com/maps/place/French+Polynesia/@-17.3154584,-153.6205983,5z/data=!3m1!4b1!4m5!3m4!1s0x741875d07c6dd74d:0x9bc07a7a09c35711!8m2!3d-17.679742!4d-149.406843",-17.3154584,-153.6205983,,,,French Polynesia,
ELoc000263,"G. Corigliano, Bovalino, Italy","https://www.google.com/maps/place/Forest+Research+Institute+Malaysia+(FRIM)/@3.2336852,101.6304671,17z/data=!3m1!4b1!4m5!3m4!1s0x31cc468c74616a13:0x65754bb0c250fbcf!8m2!3d3.2336798!4d101.6326558",3.2336852,101.6304671,,FRIM (Kepong),,Malaysia,
ELoc000264,Gabon,"https://www.google.com/maps/place/Gabon/@-0.9175384,9.2296424,7z/data=!3m1!4b1!4m5!3m4!1s0x107f3b8a5438f3ed:0x7b0cc30e36786b15!8m2!3d-0.803689!4d11.609444",-0.9175384,9.2296424,,,,Gabon,
ELoc000265,"Gafarillos, Spain","https://www.google.com/maps/place/04277+Gafarillos,+Almer%C3%ADa,+Spain/@37.0571088,-2.022616,17z/data=!3m1!4b1!4m5!3m4!1s0xd7ac4fbac9ae373:0xec0a244debcd090e!8m2!3d37.0571285!4d-2.0195723",37.0571088,-2.022616,,Gafarillos,,Spain,
ELoc000266,"Gagliano del Capo, Italy (39° 50’ 39.3” N, 18° 23’ 07.8” E, 71m)","https://www.google.com/maps/place/73034+Gagliano+del+Capo,+Province+of+Lecce,+Italy/@39.8432243,18.3603948,15z/data=!3m1!4b1!4m5!3m4!1s0x13440bad9fbb4e21:0x277f5eb5eba355d8!8m2!3d39.8482008!4d18.3705542",39.8432243,18.3603948,,Gagliano del Capo,,Italy,
ELoc000267,"Gairsain, Uttarakhand, India (79° 29’N, 30° 05’E, 1606m)","https://www.google.com/maps/place/Gairsain,+Khadun+Laga+Gawali,+Uttarakhand+246428/@30.053373,79.2826653,16z/data=!3m1!4b1!4m5!3m4!1s0x3909e72d98ad3561:0xbba1ec465fb4b46e!8m2!3d30.0538722!4d79.2865142",30.053373,79.2826653,,Gairsain,Uttarakhand,India,
ELoc000268,"Gajar, Almora, Uttarakhand, India (2220m)","https://www.google.com/maps/place/Gajar,+Uttarakhand+263661/@29.8342262,79.1114353,14z/data=!3m1!4b1!4m5!3m4!1s0x3909f16da4675373:0xbe918e5ba67d8774!8m2!3d29.8389639!4d79.1294516",29.8342262,79.1114353,," Gajar, Almora",Uttarakhand,India (1840m),
ELoc000269,"Gallipoli, Italy (39° 59’ 43.9” N, 17° 59’ 49.6” E, 5m)","https://www.google.com/maps/place/73014+Gallipoli,+Province+of+Lecce,+Italy/@40.0546065,17.9767437,14z/data=!3m1!4b1!4m5!3m4!1s0x1346a6547b66b1c7:0xd07ffbdd89ad753!8m2!3d40.0558508!4d17.9926137",40.0546065,17.9767437,,Gallipoli,,Italy,
ELoc000270,"Ganjam district (Orissa), India","https://www.google.com/maps/place/Ganjam,+Odisha/@19.6173836,84.0947027,9z/data=!3m1!4b1!4m5!3m4!1s0x3a17fcf9f2c097fb:0x8db6938ddc38ca6e!8m2!3d19.5859712!4d84.6897495",19.6173836,84.0947027,,Ganjam district,(Orissa),India,
ELoc000271,"Garhwal, Himalya, India","https://www.google.com/maps/place/Pauri+Garhwal,+Uttarakhand/@29.8504099,78.4655174,10z/data=!3m1!4b1!4m5!3m4!1s0x3909a46fc3c9a581:0xc29fdfc7d6010775!8m2!3d29.8687682!4d78.8382644",29.8504099,78.4655174,Garhwal,,,India,
ELoc000272,"Garhwal, India","https://www.google.com/maps/place/Pauri+Garhwal,+Uttarakhand/@29.8504099,78.4655174,10z/data=!3m1!4b1!4m5!3m4!1s0x3909a46fc3c9a581:0xc29fdfc7d6010775!8m2!3d29.8687682!4d78.8382644",29.8504099,78.4655174,,Garhwal,,India,
ELoc000273,"Garhwal,Himalya,India","https://www.google.com/maps/place/Pauri+Garhwal,+Uttarakhand/@29.8504099,78.4655174,10z/data=!3m1!4b1!4m5!3m4!1s0x3909a46fc3c9a581:0xc29fdfc7d6010775!8m2!3d29.8687682!4d78.8382644",29.8504099,78.4655174,Garhwal,,,India,
ELoc000274,"Garurchatti, Rudrapryag, Uttarakhand, India (3555m)","https://www.google.com/maps/search/Garurchatti,+Rudrapryag,+Uttarakhand,+India+(3555m)/@30.11673,78.3586181,15z/data=!3m1!4b1",30.11673,78.3586181,," Garurchatti,Rudrapryag",Uttarakhand,India (2800m),
ELoc000275,"Gaudaguon (Uttarkashi), Uttarakhand, India (30°43'59.88N","https://www.google.com/maps/search/Gaudaguon+(Uttarkashi),+Uttarakhand,+India/@30.7249938,78.4114192,14z/data=!3m1!4b1",30.7249938,78.4114192,,Gaudaguon (Uttarkashi),Uttarakhand,India,
ELoc000276,Gaziantep (Turkey),"https://www.google.com/maps/place/Gaziantep,+Turkey/@37.0588879,37.310097,12z/data=!3m1!4b1!4m5!3m4!1s0x1531e6b4f7f18c2f:0xc02e8b35116baad0!8m2!3d37.065953!4d37.37811",37.0588879,37.310097,,Gaziantep,,Turkey,
ELoc000277,Gennergentu massif of Sardinia,"https://www.google.com/maps/place/Gennargentu/@40.0200156,9.3112452,15z/data=!3m1!4b1!4m5!3m4!1s0x12de717ed5b17173:0xda1864f422057d8e!8m2!3d40.02!4d9.32",40.0200156,9.3112452,Gennergentu massif of Sardinia,,,,
ELoc000278,"Gerik,Perak","https://www.google.com/maps/place/Gerik,+Perak,+Malaysia/@5.4288879,101.0601107,12z/data=!3m1!4b1!4m5!3m4!1s0x31b510450f69c35b:0xff323fd11b074481!8m2!3d5.4167964!4d101.1164452",5.4288879,101.0601107,,Gerik,Perak,Malaysia,
ELoc000279,Germany,"https://www.google.com/maps/place/Germany/@51.0968357,5.9684157,6z/data=!3m1!4b1!4m5!3m4!1s0x479a721ec2b1be6b:0x75e85d6b8e91e55b!8m2!3d51.165691!4d10.451526",51.0968357,5.9684157,,,,Germany,
ELoc000280,Ghana,"https://www.google.com/maps/place/Ghana/@7.903926,-3.2747034,7z/data=!3m1!4b1!4m5!3m4!1s0xfd75acda8dad6c7:0x54d7f230d093d236!8m2!3d7.946527!4d-1.023194",7.903926,-3.2747034,,,,Ghana,
ELoc000281,"Giza, Egypt","https://www.google.com/maps/place/Giza,+Al+Omraneyah,+Giza+Governorate,+Egypt/@30.016858,31.1546237,13z/data=!3m1!4b1!4m5!3m4!1s0x1458469235579697:0x4e91d61f9878fc52!8m2!3d30.0130557!4d31.2088526",30.016858,31.1546237,,Giza,,Egypt,
ELoc000282,"Goulburn River, NewSouth Wales","https://www.google.com/maps/place/Goulburn+River/@-32.3111355,149.9403952,10z/data=!3m1!4b1!4m5!3m4!1s0x6b0c0f2b50f83b15:0x6667cc24cecdaa44!8m2!3d-32.3152852!4d150.2207785",-32.3111355,149.9403952,Goulburn River,,NewSouth Wales,Australia,
ELoc000283,"Gourbeyre (Guadeloupe),French west Indies","https://www.google.com/maps/search/Gourbeyre+(Guadeloupe),French+west+Indies/@15.9940661,-61.6879964,15z/data=!3m1!4b1",15.9940661,-61.6879964,,Gourbeyre,Guadeloupe(French west Indies),France,
ELoc000284,"Grafton,NewSouth Wales, Australia","https://www.google.com/maps/place/Grafton+NSW+2460,+Australia/@-29.6809484,152.9122622,14z/data=!3m1!4b1!4m5!3m4!1s0x6b9bdbf9e2644419:0x50609b490442ca0!8m2!3d-29.6816894!4d152.9336547",-29.6809484,152.9122622,,Grafton,NewSouth Wales,Australia,
ELoc000285,Greece,"https://www.google.com/maps/place/Greece/@38.0689779,19.9910037,6z/data=!3m1!4b1!4m5!3m4!1s0x135b4ac711716c63:0x363a1775dc9a2d1d!8m2!3d39.074208!4d21.824312",38.0689779,19.9910037,,,,Greece,
ELoc000286,"Guadalupe, Africa","https://www.google.com/maps/place/Guadeloupe/@16.1501063,-61.6772412,10z/data=!3m1!4b1!4m5!3m4!1s0x8c0e755a77287d51:0xecbe3e37b74a07ab!8m2!3d16.265!4d-61.551",16.1501063,-61.6772412,,Guadalupe,,Africa,
ELoc000287,"Guaiba, Rio Grande do Sul State, South Brazil","https://www.google.com/maps/search/Lagaedo+Grande,+Rio+Grande+do+Sul+State,+South+Brazil/@-30.3918752,-55.9132562,7z/data=!3m1!4b1",-30.3918752,-55.9132562,,Guaiba,Rio Grande do Sul State,Brazil,
ELoc000288,Guatemala,"https://www.google.com/maps/place/Guatemala/@15.7226319,-91.3560859,8z/data=!3m1!4b1!4m5!3m4!1s0x8588135036e7506b:0x35982b375b84d5bb!8m2!3d15.783471!4d-90.230759",15.7226319,-91.3560859,,,,Guatemala,
ELoc000289,"Guatemata, Coban","https://www.google.com/maps/place/Cob%C3%A1n,+Guatemala/@15.466711,-90.4019966,14z/data=!3m1!4b1!4m5!3m4!1s0x858a41337d7ecf53:0x4a10d9972701dce7!8m2!3d15.4650586!4d-90.3842527",15.466711,-90.4019966,,Coban,Alta Verapaz,Guatemata,
ELoc000290,"Guira de Melena, Havana","https://www.google.com/maps/place/G%C3%BCira+de+Melena,+Cuba/@22.8018171,-82.5259925,14z/data=!3m1!4b1!4m5!3m4!1s0x88cd41b860f04dcd:0x30d0995d773a8614!8m2!3d22.795672!4d-82.5131717",22.8018171,-82.5259925,,Guira de Melena,Havana,Cuba,
ELoc000291,"Guira de melena, Havana, Cuba","https://www.google.com/maps/place/G%C3%BCira+de+Melena,+Cuba/@22.8018171,-82.5259925,14z/data=!3m1!4b1!4m5!3m4!1s0x88cd41b860f04dcd:0x30d0995d773a8614!8m2!3d22.795672!4d-82.5131717",22.8018171,-82.5259925,,Guira de melena,Havana,Cuba,
ELoc000292,"Gurgaon, India","https://www.google.com/maps/place/Gurugram,+Haryana/@28.4231878,76.8496969,11z/data=!3m1!4b1!4m5!3m4!1s0x390d19d582e38859:0x2cf5fe8e5c64b1e!8m2!3d28.4594965!4d77.0266383",28.4231878,76.8496969,,Gurgaon,,India,
ELoc000293,Haiti,"https://www.google.com/maps/place/Haiti/@19.0344152,-74.2362478,8z/data=!3m1!4b1!4m5!3m4!1s0x8eb6c6f37fcbbb11:0xb51438b24c54f6d3!8m2!3d18.971187!4d-72.285215",19.0344152,-74.2362478,,,,Haiti,
ELoc000294,"Hangzhou, China","https://www.google.com/maps/place/Hangzhou,+Zhejiang,+China/@30.2616125,120.0318056,11z/data=!3m1!4b1!4m5!3m4!1s0x344bb629439aaa99:0xa7bfd183824de83a!8m2!3d30.274084!4d120.15507",30.2616125,120.0318056,,Hangzhou,,China,
ELoc000295,"Hanoi, Vietnam","https://www.google.com/maps/place/Hanoi,+Ho%C3%A0n+Ki%E1%BA%BFm,+Hanoi,+Vietnam/@21.0228161,105.8019442,13z/data=!3m1!4b1!4m5!3m4!1s0x3135ab9bd9861ca1:0xe7887f7b72ca17a9!8m2!3d21.0277644!4d105.8341598",21.0228161,105.8019442,,Hanoi,,Vietnam,
ELoc000296,"Harvey, Western Australia","https://www.google.com/maps/place/Harvey+WA+6220,+Australia/@-33.0741813,115.8465117,12z/data=!3m1!4b1!4m5!3m4!1s0x2a321d8e86113127:0x500f638247a0c40!8m2!3d-33.0786638!4d115.915262",-33.0741813,115.8465117,,Harvey,Western Australia,Australia,
ELoc000297,"Harveys Creek, Queensland","https://www.google.com/maps/place/Harvey+Creek+Rd,+Bellenden+Ker+QLD+4871,+Australia/@-17.2681656,145.9221455,17z/data=!3m1!4b1!4m5!3m4!1s0x6978ec32b5fd9653:0x1326906d6a442c10!8m2!3d-17.2681707!4d145.9243342",-17.2681656,145.9221455,,Harveys Creek,Queensland,Australia,
ELoc000298,"Hashimoto, Japan","https://www.google.com/maps/place/Hashimoto,+Wakayama,+Japan/@34.3129986,135.5336622,12z/data=!3m1!4b1!4m5!3m4!1s0x6006d62639f44d03:0xd9939de4c1afb73c!8m2!3d34.3146694!4d135.6054068",34.3129986,135.5336622,,Hashimoto,,Japan,
ELoc000299,Havana,"https://www.google.com/maps/place/Havana,+Cuba/@23.0509409,-82.4730872,11z/data=!3m1!4b1!4m5!3m4!1s0x88cd774cbdf600e1:0x4e294d7e1a770d60!8m2!3d23.1135925!4d-82.3665956",23.0509409,-82.4730872,,,,Havana,
ELoc000300,Havana (Cuba),"https://www.google.com/maps/place/Havana,+Cuba/@23.0509409,-82.4730872,11z/data=!3m1!4b1!4m5!3m4!1s0x88cd774cbdf600e1:0x4e294d7e1a770d60!8m2!3d23.1135925!4d-82.3665956",23.0509409,-82.4730872,,Havana,,Cuba,
ELoc000301,"Havana, Cuba","https://www.google.com/maps/place/Havana,+Cuba/@23.0509409,-82.4730872,11z/data=!3m1!4b1!4m5!3m4!1s0x88cd774cbdf600e1:0x4e294d7e1a770d60!8m2!3d23.1135925!4d-82.3665956",23.0509409,-82.4730872,,Havana,Havana,Cuba,
ELoc000302,Hawaii,"https://www.google.com/maps/place/Hawaii,+USA/@20.4507612,-159.7490278,7z/data=!3m1!4b1!4m5!3m4!1s0x7bffdb064f79e005:0x4b7782d274cc8628!8m2!3d19.8967662!4d-155.5827818",20.4507612,-159.7490278,,,,Hawaii,
ELoc000303,"Helang, Uttarakhand, India (79° 53’N, 30° 55’E, 1825m)",,,,,Helang,Uttarakhand,India,
ELoc000304,"Hezar Mountains, Kermans, Province of Kerman, Iran","https://www.google.com/maps/search/Hezar+Mountains,+Kermans,+Province+of+Kerman,+Iran/@30.2814901,57.0674588,17z/data=!3m1!4b1",30.2814901,57.0674588,Hezar Mountains,,Province of Kerman,Kermans,
ELoc000305,Hilden,"https://www.google.com/maps/place/Hilden,+Germany/@51.1692855,6.9035461,13z/data=!3m1!4b1!4m5!3m4!1s0x47b8cd65aced8edd:0x42760fc4a2a7580!8m2!3d51.1678567!4d6.9352253",51.1692855,6.9035461,,,,Hilden,
ELoc000306,Himachal Pradesh,"https://www.google.com/maps/place/Himachal+Pradesh/@31.8176338,76.1742058,8z/data=!3m1!4b1!4m5!3m4!1s0x390453c367f901f7:0x7cfe04c5564b7725!8m2!3d31.1048294!4d77.1733901",31.8176338,76.1742058,,,Himachal Pradesh,India,
ELoc000307,"Himachal Pradesh, India","https://www.google.com/maps/place/Himachal+Pradesh/@31.8176338,76.1742058,8z/data=!3m1!4b1!4m5!3m4!1s0x390453c367f901f7:0x7cfe04c5564b7725!8m2!3d31.1048294!4d77.1733901",31.8176338,76.1742058,,,Himachal Pradesh,India,
ELoc000308,Himalyas,"https://www.google.com/maps/place/Himalayas/@30.0954523,76.5814609,5z/data=!3m1!4b1!4m5!3m4!1s0x3995b9ebef1235bd:0x3ae1297b70640201!8m2!3d28.5983159!4d83.9310623",30.0954523,76.5814609,Himalyas,,,,
ELoc000309,"Himalyas, North Sikkim,India","https://www.google.com/maps/place/North+Sikkim,+Sikkim/@27.7365613,88.2273431,10z/data=!3m1!4b1!4m5!3m4!1s0x39e6bf0a08497891:0x7d2181d3e4eba146!8m2!3d27.8236356!4d88.556531",27.7365613,88.2273431,Himalyas,,North Sikkim,India,
ELoc000310,"Himalyas, Uttarakhand,India","https://www.google.com/maps/place/Uttarakhand/@30.0799898,78.1904218,8z/data=!3m1!4b1!4m5!3m4!1s0x3909dcc202279c09:0x7c43b63689cc005!8m2!3d30.066753!4d79.0192997",30.0799898,78.1904218,,Himalyas,Uttarakhand,India,
ELoc000311,Ho Chi Min City(Vietnam),"https://www.google.com/maps/place/Ho+Chi+Minh+City,+Vietnam/@10.7553411,106.4150358,10z/data=!3m1!4b1!4m5!3m4!1s0x317529292e8d3dd1:0xf15f5aad773c112b!8m2!3d10.8230989!4d106.6296638",10.7553411,106.4150358,,Ho Chi Min City,,(Vietnam),
ELoc000312,Homand,,,,,,,Homand,
ELoc000313,Hondures,"https://www.google.com/maps/place/Honduras/@15.2184811,-88.4534632,7z/data=!3m1!4b1!4m5!3m4!1s0x8f6a751a73b731cf:0x7ed1de82b6fb8264!8m2!3d15.199999!4d-86.241905",15.2184811,-88.4534632,,,,Hondures,
ELoc000314,"Hormozgan Province, Iran","https://www.google.com/maps/place/Hormozgan+Province,+Iran/@27.1318464,51.4573575,6z/data=!3m1!4b1!4m5!3m4!1s0x3e50519ffda96723:0xfbfcd71b9e87b584!8m2!3d27.138723!4d55.1375834",27.1318464,51.4573575,,,Hormozgan Province,Iran,
ELoc000315,"Hormozgan, Iran","https://www.google.com/maps/place/Hormozgan+Province,+Iran/@27.190549,53.707815,7z/data=!3m1!4b1!4m5!3m4!1s0x3e50519ffda96723:0xfbfcd71b9e87b584!8m2!3d27.138723!4d55.1375834",27.190549,53.707815,,Hormozgan,,Iran,
ELoc000316,Hozoviotissa,"https://www.google.com/maps/place/Moni+Panagias+Chozoviotissas/@36.8345481,25.9073289,17z/data=!3m1!4b1!4m5!3m4!1s0x1497ef054c1e04b1:0x57c29e1d86e90ee9!8m2!3d36.8345438!4d25.9095176",36.8345481,25.9073289,,,,Hozoviotissa,
ELoc000317,Hungary,"https://www.google.com/maps/place/Hungary/@47.14301,17.2621835,7z/data=!3m1!4b1!4m5!3m4!1s0x4741837bdf37e4c3:0xc4290c1e1010!8m2!3d47.162494!4d19.5033041",47.14301,17.2621835,,,,Hungary,
ELoc000318,"Hyderabad, India","https://www.google.com/maps/place/Hyderabad,+Telangana/@17.4126274,78.2679601,11z/data=!3m1!4b1!4m5!3m4!1s0x3bcb99daeaebd2c7:0xae93b78392bafbc2!8m2!3d17.385044!4d78.486671",17.4126274,78.2679601,,Hyderabad,,India,
ELoc000319,"I.I.H.R. (Bangalore), India","https://www.google.com/maps/search/I.I.H.R.+(Bangalore),+India/@13.1332843,77.4897046,17z/data=!3m1!4b1",13.1332843,77.4897046,I.I.H.R.,(Bangalore),,India,
ELoc000320,"IIHR (Bangalore), India","https://www.google.com/maps/search/IIHR+(Bangalore),+India/@13.1332843,77.4897046,17z/data=!3m1!4b1",13.1332843,77.4897046,IIHR,(Bangalore),,India,
ELoc000321,"IISR (Calicut), India","https://www.google.com/maps/place/IISR+Kozhikode/@11.2986365,75.8382878,17z/data=!3m1!4b1!4m5!3m4!1s0x3ba65c435b137d55:0xc1b2966e9f351d12!8m2!3d11.2986312!4d75.8404765",11.2986365,75.8382878,,IISR (Calicut),,India,
ELoc000322,"INIFAT (Havana), Cuba","https://www.google.com/maps/place/INIFAT/@22.974301,-82.3893752,17z/data=!3m1!4b1!4m5!3m4!1s0x88cd6562bc16debd:0x96b289bad82891e2!8m2!3d22.9742961!4d-82.3871865",22.974301,-82.3893752,INIFAT (Havana),,,Cuba,
ELoc000323,IPK Osijek,,,,IPK Osijek,,,,
ELoc000324,"Ibadan, Oyo State, Nigeria","https://www.google.com/maps/place/Ibadan,+Nigeria/@7.4209796,3.8341402,12z/data=!3m1!4b1!4m5!3m4!1s0x10398d77eeff086f:0x3b33e0f76e8e04a9!8m2!3d7.3775355!4d3.9470396",7.4209796,3.8341402,,Ibadan,Oyo State,Nigeria,
ELoc000325,"Icaya and Kami, Ayopaya","https://www.google.com/maps/search/Icaya+and+Kami,+Ayopaya/@-16.6199982,-67.188203,9z/data=!3m1!4b1",-16.6199982,-67.188203,Icaya and Kami,Ayopaya,,Bolivia,
ELoc000326,"Idaho, (North America)","https://www.google.com/maps/place/Idaho,+USA/@45.4143449,-118.6310151,6z/data=!3m1!4b1!4m5!3m4!1s0x5358ffa885e499e9:0xd06b300515f78758!8m2!3d44.0682019!4d-114.7420408",45.4143449,-118.6310151,,,Idaho,USA,
ELoc000327,Illawarra Hwy,"https://www.google.com/maps/place/Illawarra+Hwy,+New+South+Wales,+Australia/@-34.581897,150.5118971,17z/data=!3m1!4b1!4m5!3m4!1s0x6b139ee1417d83b1:0xaa1ae5159641772!8m2!3d-34.5819014!4d150.5140858",-34.581897,150.5118971,,Illawarra Hwy,New South Wales,Australia,
ELoc000328,India,"https://www.google.com/maps/place/India/@20.7709366,73.7250259,5z/data=!3m1!4b1!4m5!3m4!1s0x30635ff06b92b791:0xd78c4fa1854213a6!8m2!3d20.593684!4d78.96288",20.7709366,73.7250259,,,,India,
ELoc000329,"India (Dinapani, Almora, altitude 2000 m)","https://www.google.com/maps/search/India+(Dinapani,+Almora,+altitude+2000+m)/@29.6668743,79.6776927,16z/data=!3m1!4b1",29.6668743,79.6776927,," Dinapani, Almora",Uttarakhand,India,
ELoc000330,India (Palampur),"https://www.google.com/maps/place/Palampur,+Himachal+Pradesh/@32.1193541,76.5056558,13z/data=!3m1!4b1!4m5!3m4!1s0x3904b3e0d1e63ac9:0x11046afda32dfd59!8m2!3d32.1108599!4d76.5362526",32.1193541,76.5056558,,(Palampur),,India,
ELoc000331,"India (Sikkim,Darjeeling,Assam hills)",,,,,,"(Sikkim, Assam )",India,
ELoc000332,"India (Takula, Almora, altitude 1100 m)","https://www.google.com/maps/search/India+(Takula,+Almora,+altitude+1100+m)/@29.7452278,79.6848957,17z/data=!3m1!4b1",29.7452278,79.6848957,,"Takula, Almora",Uttarakhand,India,
ELoc000333,India (Uttaranchal),"https://www.google.com/maps/place/Uttarakhand/@30.0799898,78.1904218,8z/data=!3m1!4b1!4m5!3m4!1s0x3909dcc202279c09:0x7c43b63689cc005!8m2!3d30.066753!4d79.0192997",30.0799898,78.1904218,,(Uttaranchal),,India,
ELoc000334,India(Hyderabad),"https://www.google.com/maps/place/Hyderabad,+Telangana/@17.4126274,78.2679601,11z/data=!3m1!4b1!4m5!3m4!1s0x3bcb99daeaebd2c7:0xae93b78392bafbc2!8m2!3d17.385044!4d78.486671",17.4126274,78.2679601,,(Hyderabad),,India,
ELoc000335,India(Ooty),"https://www.google.com/maps/place/Ooty,+Tamil+Nadu/@11.4119347,76.6584021,13z/data=!3m1!4b1!4m5!3m4!1s0x3ba8bd84b5f3d78d:0x179bdb14c93e3f42!8m2!3d11.4064138!4d76.6932438",11.4119347,76.6584021,,(Ooty),,India,
ELoc000336,India(Orissa),"https://www.google.com/maps/place/Odisha/@20.1817028,82.1918682,7z/data=!3m1!4b1!4m5!3m4!1s0x3a226aece9af3bfd:0x133625caa9cea81f!8m2!3d20.9516658!4d85.0985236",20.1817028,82.1918682,,,(Orissa),India,
ELoc000337,India(Uttaranchal),"https://www.google.com/maps/place/Uttarakhand/@30.0799898,78.1904218,8z/data=!3m1!4b1!4m5!3m4!1s0x3909dcc202279c09:0x7c43b63689cc005!8m2!3d30.066753!4d79.0192997",30.0799898,78.1904218,,,(Uttaranchal),India,
ELoc000338,Indonesia,"https://www.google.com/maps/place/Indonesia/@-2.276273,99.4767585,4z/data=!3m1!4b1!4m5!3m4!1s0x2c4c07d7496404b7:0xe37b4de71badf485!8m2!3d-0.789275!4d113.921327",-2.276273,99.4767585,,,,Indonesia,
ELoc000339,Introduced in India from Reunion Island,,,,Introduced in India from Reunion Island,,,,
ELoc000340,Introduced in india from Madagascar,,,,Introduced in india from Madagascar,,,,
ELoc000341,Iran,"https://www.google.com/maps/place/Iran/@31.9929018,44.6761633,5z/data=!3m1!4b1!4m5!3m4!1s0x3ef7ec2ec16b1df1:0x40b095d39e51face!8m2!3d32.427908!4d53.688046",31.9929018,44.6761633,,,,Iran,
ELoc000342,"Isanlu-Isin, Nigeria","https://www.google.com/maps/place/Isanlu+Isin,+Nigeria/@8.2321962,5.0751901,15z/data=!3m1!4b1!4m5!3m4!1s0x104827a080ad42e1:0x9ff716bd7e24709!8m2!3d8.2302721!4d5.0832952",8.2321962,5.0751901,,Isanlu-Isin,,Nigeria,
ELoc000343,"Isfaran, Iran",,,,,,,,
ELoc000344,Israel,"https://www.google.com/maps/place/Israel/@31.3914077,32.8382202,7z/data=!3m1!4b1!4m5!3m4!1s0x1500492432a7c98b:0x6a6b422013352cba!8m2!3d31.046051!4d34.851612",31.3914077,32.8382202,,,,Israel,
ELoc000345,"Itacoatiara city (Manaus), Brazil","https://www.google.com/maps/search/Itacoatiara+city+(Manaus),+Brazil/@-3.0935282,-59.9914699,14z/data=!3m1!4b1",-3.0935282,-59.9914699,,Itacoatiara city (Manaus),,Brazil,
ELoc000346,Italy,"https://www.google.com/maps/place/Italy/@41.2118591,8.2229294,6z/data=!3m1!4b1!4m5!3m4!1s0x12d4fe82448dd203:0xe22cf55c24635e6f!8m2!3d41.87194!4d12.56738",41.2118591,8.2229294,,,,Italy,
ELoc000347,Italy(Southern),"https://www.google.com/maps/search/Italy(Southern)/@40.3879297,13.2509735,7z/data=!3m1!4b1",40.3879297,13.2509735,,,Southern italy,Italy,
ELoc000348,"Itapua, Southern Brazil","https://www.google.com/maps/search/Itapua,+Southern+Brazil/@-28.1300287,-52.0517868,7z/data=!3m1!4b1",-28.1300287,-52.0517868,,Itapua,Southern Brazil,Brazil,
ELoc000349,"Itawah(U.P.),India","https://www.google.com/maps/place/Etawah,+Uttar+Pradesh/@26.787408,78.9825182,13z/data=!3m1!4b1!4m5!3m4!1s0x3975dfd884cf6219:0x6aa136334cfc04c5!8m2!3d26.7829103!4d79.027659",26.787408,78.9825182,,Itawah,(U.P.),India,
ELoc000350,Ivriz kaynagi,"https://www.google.com/maps/search/Ivriz+kaynagi/@41.0047413,15.6061413,8z/data=!3m1!4b1",41.0047413,15.6061413,Ivriz kaynagi,,,,
ELoc000351,"Iwo, Nigeria","https://www.google.com/maps/place/Iwo,+Nigeria/@7.6311163,4.1638611,14z/data=!3m1!4b1!4m5!3m4!1s0x1039db0e6d74358b:0xcc0948ba39ef7541!8m2!3d7.6292088!4d4.1872178",7.6311163,4.1638611,,Iwo,,Nigeria,
ELoc000352,"Jaboticabal, Brazil","https://www.google.com/maps/place/Jaboticabal,+State+of+S%C3%A3o+Paulo,+Brazil/@-21.2581978,-48.3429894,14z/data=!3m1!4b1!4m5!3m4!1s0x94b96b7b3e3f747f:0x2d548f380dafd731!8m2!3d-21.2525138!4d-48.3256762",-21.2581978,-48.3429894,Jaboticabal,,,Brazil,
ELoc000353,"Jaburu/Tiangua, Brazil","https://www.google.com/maps/place/A%C3%A7ude+Jaburu+I/@-3.8485765,-41.1072224,14z/data=!3m1!4b1!4m5!3m4!1s0x794b2f7b341a4f5:0x66eef1fa718687e0!8m2!3d-3.8432541!4d-41.0923095",-3.8485765,-41.1072224,,Jaburu/Tiangua,,Brazil,
ELoc000354,"Jacobina,Bahia","https://www.google.com/maps/place/Jacobina,+State+of+Bahia,+44700-000,+Brazil/@-11.0115087,-40.8520518,11z/data=!3m1!4b1!4m5!3m4!1s0x76c56b43fbf9c45:0xd28cc2f5a189ff3b!8m2!3d-11.1816506!4d-40.5120603",-11.0115087,-40.8520518,,Jacobina,Bahia,Brazil,
ELoc000355,Jadran coast,"https://www.google.com/maps/place/Adriatic+Sea/@42.6692602,13.8858362,7z/data=!3m1!4b1!4m5!3m4!1s0x132cdd6541cddfab:0x7ef34f7c5d0522f7!8m2!3d41.8550904!4d17.2902839",42.6692602,13.8858362,,,,Jadran coast,
ELoc000356,Jagdalpur (central India),"https://www.google.com/maps/place/Jagdalpur,+Chhattisgarh/@19.0822699,81.9763424,13z/data=!3m1!4b1!4m5!3m4!1s0x3a30126bc5ae6beb:0xcae4d4ac10952ba7!8m2!3d19.0740973!4d82.008014",19.0822699,81.9763424,,Jagdalpur,(Central India),India,
ELoc000357,"Jalan Ipoh, Malaysia","https://www.google.com/maps/place/Jalan+Ipoh,+51200+Kuala+Lumpur,+Federal+Territory+of+Kuala+Lumpur,+Malaysia/@3.1786232,101.6796972,16z/data=!3m1!4b1!4m5!3m4!1s0x31cc4814bedaa94b:0xf2b93d7dfc7cef30!8m2!3d3.175161!4d101.6865518",3.1786232,101.6796972,,Jalan Ipoh,,Malaysia,
ELoc000358,Jalisco,"https://www.google.com/maps/place/Jalisco,+Mexico/@20.8369797,-104.7242338,8z/data=!3m1!4b1!4m5!3m4!1s0x841f40ebd4624e6f:0xa0feb0a35a1b4a53!8m2!3d20.6595382!4d-103.3494376",20.8369797,-104.7242338,,,Jalisco,Mexico,
ELoc000359,Jamaica,"https://www.google.com/maps/place/Jamaica/@18.1187027,-78.3973907,8z/data=!3m1!4b1!4m5!3m4!1s0x8eda2a1bc6cf719d:0x59a0d1c0b5120efa!8m2!3d18.109581!4d-77.297508",18.1187027,-78.3973907,,,,Jamaica,
ELoc000360,"Jamaica, West Indies","https://www.google.com/maps/place/Jamaica/@18.1187027,-78.3973907,8z/data=!3m1!4b1!4m5!3m4!1s0x8eda2a1bc6cf719d:0x59a0d1c0b5120efa!8m2!3d18.109581!4d-77.297508",18.1187027,-78.3973907,,Jamaica,,West Indies,
ELoc000361,"Jamia Hamdard, New Delhi (India)","https://www.google.com/maps/place/Jamia+Hamdard/@28.5153115,77.248133,17z/data=!3m1!4b1!4m5!3m4!1s0x390ce17200f30e01:0xa21a99247ddc4c4c!8m2!3d28.5153068!4d77.2503217",28.5153115,77.248133,Jamia Hamdard,New Delhi,Delhi,India,
ELoc000362,Jammu and Kashmir,"https://www.google.com/maps/place/Jammu+and+Kashmir/@33.8830779,74.2847032,7z/data=!3m1!4b1!4m5!3m4!1s0x38e1092499ffa89d:0x6567a6d4697e7f1!8m2!3d33.778175!4d76.5761714",33.8830779,74.2847032,,,Jammu and Kashmir,India,
ELoc000363,Japan,"https://www.google.com/maps/place/Japan/@32.6946884,129.4239409,5z/data=!3m1!4b1!4m5!3m4!1s0x34674e0fd77f192f:0xf54275d47c665244!8m2!3d36.204824!4d138.252924",32.6946884,129.4239409,Japan,,,Japan,
ELoc000364,Jazinacko Lake,"https://www.google.com/maps/place/Jazhinc%C3%AB+Lake/@42.1521893,20.9916356,17z/data=!3m1!4b1!4m5!3m4!1s0x13538c9f5de37c13:0x376f70fec441ab0d!8m2!3d42.1520448!4d20.9936944",42.1521893,20.9916356,Jazinacko Lake,,,,
ELoc000365,"Jerusalem, Israel","https://www.google.com/maps/place/Jerusalem,+Israel/@31.7964453,35.1053189,12z/data=!3m1!4b1!4m5!3m4!1s0x1502d7d634c1fc4b:0xd96f623e456ee1cb!8m2!3d31.768319!4d35.21371",31.7964453,35.1053189,,Jerusalem,,Israel,
ELoc000366,"Jhala, Uttarkashi, Uttarakhand, India (2500m)","https://www.google.com/maps/search/Jhala,+Uttarkashi,+Uttarakhand,+India+(2500m)/@31.0273142,78.7126576,16z/data=!3m1!4b1",31.0273142,78.7126576,," Jhala,Uttarkashi",Uttarakhand,India (2240m),
ELoc000367,"Jonava, Lithuania","https://www.google.com/maps/place/Jonava,+Lithuania/@55.0789045,24.2493011,13z/data=!3m1!4b1!4m5!3m4!1s0x46e70922f0d9bbcb:0x400d18c70e9d930!8m2!3d55.0727242!4d24.2793337",55.0789045,24.2493011,,Jonava,,Lithuania,
ELoc000368,Jordan,"https://www.google.com/maps/place/Jordan/@31.2650915,34.8790258,7z/data=!3m1!4b1!4m5!3m4!1s0x15006f476664de99:0x8d285b0751264e99!8m2!3d30.585164!4d36.238414",31.2650915,34.8790258,,,,Jordan,
ELoc000369,"Jujuy, Argentina","https://www.google.com/maps/place/Jujuy,+Argentina/@-24.2051671,-65.3755953,12z/data=!3m1!4b1!4m5!3m4!1s0x941b0f4e8bd7a62f:0x315150e057f6e499!8m2!3d-24.1857864!4d-65.2994767",-24.2051671,-65.3755953,,Jujuy,,Argentina,
ELoc000370,"Jurbarkas, Lithuania","https://www.google.com/maps/place/Jurbarkas,+Lithuania/@55.0801542,22.7067442,13z/data=!3m1!4b1!4m5!3m4!1s0x46e6a16d4f705fed:0x62686e50317ef8a!8m2!3d55.077407!4d22.7419569",55.0801542,22.7067442,,Jurbarkas,,Lithuania,
ELoc000371,"Jureja, Southern Brazil","https://www.google.com/maps/search/Jureja,+Southern+Brazil/@-28.050863,-57.3283128,6z/data=!3m1!4b1",-28.050863,-57.3283128,,Jureja,Southern Brazil,Brazil,
ELoc000372,"Kadiria, Algeria","https://www.google.com/maps/place/Kadiria,+Algeria/@36.5254542,3.596368,12z/data=!3m1!4b1!4m5!3m4!1s0x128e809517bcf3e5:0x7fde9a104246500c!8m2!3d36.5200245!4d3.6927531",36.5254542,3.596368,,Kadiria,,Algeria,
ELoc000373,"Kaisiadorys, Lithuania","https://www.google.com/maps/place/Kai%C5%A1iadorys,+Lithuania/@54.8612909,24.3927975,13z/data=!3m1!4b1!4m5!3m4!1s0x46e76985cccc19a7:0x400d18c70e9d920!8m2!3d54.8588669!4d24.4277929",54.8612909,24.3927975,,Kaisiadorys,,Lithuania,
ELoc000374,"Kandbari, India","https://www.google.com/maps/place/Kandbari,+Himachal+Pradesh/@32.1145849,76.5761876,16z/data=!3m1!4b1!4m5!3m4!1s0x3904b117a20e05b1:0xb790631c937d9b7c!8m2!3d32.115423!4d76.5806097",32.1145849,76.5761876,,Kandbari,,India,
ELoc000375,"Kanpur, India","https://www.google.com/maps/place/Kanpur,+Uttar+Pradesh/@26.4473103,80.2683426,12z/data=!3m1!4b1!4m5!3m4!1s0x399c4770b127c46f:0x1778302a9fbe7b41!8m2!3d26.449923!4d80.3318736",26.4473103,80.2683426,,Kanpur,,India,
ELoc000376,"Kara, Kenya","https://www.google.com/maps/place/The+Kenya+Alliance+of+Resident+Associations+(KARA)/@-1.3013003,36.7868748,17z/data=!3m1!4b1!4m5!3m4!1s0x182f109eb31f30cb:0x3795a4f6eefcb87b!8m2!3d-1.3013057!4d36.7890635",-1.3013003,36.7868748,,Kara,,Kenya,
ELoc000377,"Karaj, Tehran","https://www.google.com/maps/place/Karaj,+Alborz+Province,+Iran/@35.8111082,50.8772972,12z/data=!3m1!4b1!4m5!3m4!1s0x3f8dbf95ef45f011:0x722a04e54eba9bcd!8m2!3d35.8400188!4d50.9390906",35.8111082,50.8772972,,Karaj,,Tehran,
ELoc000378,"Kashan, Hossein Abad, Iran","https://www.google.com/maps/place/Hossein+Abad,+Isfahan+Province,+Iran/@33.7792052,51.4976942,17z/data=!3m1!4b1!4m5!3m4!1s0x3f967b248dcee701:0x3f7a8f4931ac63aa!8m2!3d33.7787754!4d51.4998972",33.7792052,51.4976942,,Kashan,Hossein Abad,Iran,
ELoc000379,"Kashan, Iran","https://www.google.com/maps/place/Kashan,+Isfahan+Province,+Iran/@33.981549,51.3427141,12z/data=!3m1!4b1!4m5!3m4!1s0x3f9684849edea239:0xaf87e360598c6612!8m2!3d33.9850358!4d51.4099625",33.981549,51.3427141,,Kashan,,Iran,
ELoc000380,"Kashmir, India","https://www.google.com/maps/place/Jammu+and+Kashmir/@33.8830779,74.2847032,7z/data=!3m1!4b1!4m5!3m4!1s0x38e1092499ffa89d:0x6567a6d4697e7f1!8m2!3d33.778175!4d76.5761714",33.8830779,74.2847032,,,Kashmir,India,
ELoc000381,Kazakhstan,"https://www.google.com/maps/place/Kazakhstan/@46.6248592,49.0410674,4z/data=!3m1!4b1!4m5!3m4!1s0x38a91007ecfca947:0x5f7b842fe4b30e1b!8m2!3d48.019573!4d66.923684",46.6248592,49.0410674,,,,Kazakhstan,
ELoc000382,Kedah,"https://www.google.com/maps/place/Kedah,+Malaysia/@5.8118305,99.8142964,9z/data=!3m1!4b1!4m5!3m4!1s0x304976135f4045a1:0x6ce483110aab4ea4!8m2!3d6.1183964!4d100.3684595",5.8118305,99.8142964,,,,Kedah,
ELoc000383,"Kedarnath (Uttarakhand, India)","https://www.google.com/maps/place/Kedarnath,+Uttarakhand+246445/@30.7344861,79.0647465,17z/data=!3m1!4b1!4m5!3m4!1s0x39083ee051e628b1:0x167ce4efaf440f1e!8m2!3d30.7346267!4d79.0668943",30.7344861,79.0647465,,Kedarnath,Uttarakhand,India,
ELoc000384,"Kemasul, Malaysia","https://www.google.com/maps/place/SK+(FELDA)+Kemasul/@3.2844094,102.2233883,17z/data=!3m1!4b1!4m5!3m4!1s0x31ce99bddd1ebafd:0x2ae4e447c5b4ba70!8m2!3d3.284404!4d102.225577",3.2844094,102.2233883,,Kemasul,,Malaysia,
ELoc000385,Kenya,"https://www.google.com/maps/place/Kenya/@0.1650958,33.4111525,6z/data=!3m1!4b1!4m5!3m4!1s0x182780d08350900f:0x403b0eb0a1976dd9!8m2!3d-0.023559!4d37.906193",0.1650958,33.4111525,,,,Kenya,
ELoc000386,Kerala (India),"https://www.google.com/maps/place/Kerala/@10.5381326,73.8840561,7z/data=!3m1!4b1!4m5!3m4!1s0x3b0812ffd49cf55b:0x64bd90fbed387c99!8m2!3d10.8505159!4d76.2710833",10.5381326,73.8840561,,,Kerala,India,
ELoc000387,"Kerala, India","https://www.google.com/maps/place/Kerala/@10.5381326,73.8840561,7z/data=!3m1!4b1!4m5!3m4!1s0x3b0812ffd49cf55b:0x64bd90fbed387c99!8m2!3d10.8505159!4d76.2710833",10.5381326,73.8840561,,,Kerala,India,
ELoc000388,Kerela (India),"https://www.google.com/maps/place/Kerala/@10.5381326,73.8840561,7z/data=!3m1!4b1!4m5!3m4!1s0x3b0812ffd49cf55b:0x64bd90fbed387c99!8m2!3d10.8505159!4d76.2710833",10.5381326,73.8840561,,Kerela,,India,
ELoc000389,"Kerman Province, Iran","https://www.google.com/maps/place/Kerman+Province,+Iran/@29.0337984,54.7243905,7z/data=!3m1!4b1!4m5!3m4!1s0x3efdb85994a0ed4b:0x261df5735420419e!8m2!3d29.4850089!4d57.6439048",29.0337984,54.7243905,,,Kerman Province,Iran,
ELoc000390,"Kerman, Iran","https://www.google.com/maps/place/Kerman,+Kerman+Province,+Iran/@30.2731806,56.9962098,12z/data=!3m1!4b1!4m5!3m4!1s0x3f021851dbb1d0d1:0xcd1f7455f5d78eb6!8m2!3d30.2839379!4d57.0833628",30.2731806,56.9962098,,Kerman,,Iran,
ELoc000391,"Khorassan, Iran","https://www.google.com/maps/place/South+Khorasan+Province,+Iran/@32.7616202,55.9821261,7z/data=!3m1!4b1!4m5!3m4!1s0x3f1bb80896c154b5:0x7fb808ddc56458e!8m2!3d32.5175643!4d59.1041758",32.7616202,55.9821261,,Khorassan,,Iran,
ELoc000392,"Khorramabad, Iran","https://www.google.com/maps/place/Khorramabad,+Lorestan+Province,+Iran/@33.4912406,48.2890298,12z/data=!3m1!4b1!4m5!3m4!1s0x3feec6d160352a89:0xbd1bfe089f5e229c!8m2!3d33.4646833!4d48.3389644",33.4912406,48.2890298,,Khorramabad,,Iran,
ELoc000393,"Kings plains National Park, NewSouth Wales","https://www.google.com/maps/place/Kings+Plains+National+Park/@-29.5908416,151.3550125,17z/data=!3m1!4b1!4m5!3m4!1s0x6b98a8820e60f437:0xf0609b573fef6b0!8m2!3d-29.5908463!4d151.3572012",-29.5908416,151.3550125,Kings plains National Park,,NewSouth Wales,Australia,
ELoc000394,"Kinshasa, Congo","https://www.google.com/maps/place/Kinshasa,+Democratic+Republic+of+the+Congo/@-4.4009483,15.182659,11z/data=!3m1!4b1!4m5!3m4!1s0x1a6a3130fe066a8b:0x168b7e4e1f52378d!8m2!3d-4.4419311!4d15.2662931",-4.4009483,15.182659,,Kinshasa,,Congo,
ELoc000395,"Kirklareli,Turkey","https://www.google.com/maps/place/K%C4%B1rklareli,+K%C4%B1rklareli+Merkez%2FK%C4%B1rklareli,+Turkey/@41.7363107,27.2003704,14z/data=!3m1!4b1!4m5!3m4!1s0x40a7536dd7f878bd:0x2c4e9cd3b6d583a6!8m2!3d41.735472!4d27.224369",41.7363107,27.2003704,,Kirklareli,,Turkey,
ELoc000396,"Kizildag Pass, Imranli-Sivas","https://www.google.com/maps/place/K%C4%B1z%C4%B1lda%C4%9F+Pass/@39.8522378,38.4012452,15z/data=!3m1!4b1!4m5!3m4!1s0x407a55997542d16b:0x92606d05ea9d0c4c!8m2!3d39.8522222!4d38.41",39.8522378,38.4012452,Kizildag Pass,Imranli-Sivas,,zambia,
ELoc000397,"Kladovo, Serbia","https://www.google.com/maps/place/Kladovo,+Serbia/@44.6043301,22.5553603,13z/data=!3m1!4b1!4m5!3m4!1s0x475232045595c461:0x6dfe9b057ab55ca5!8m2!3d44.6035552!4d22.6098737",44.6043301,22.5553603,,Kladovo,,,
ELoc000398,"Kodaikanal, India","https://www.google.com/maps/place/Kodaikanal,+Tamil+Nadu/@10.2352337,77.4618525,13z/data=!3m1!4b1!4m5!3m4!1s0x3b0766637f0a0387:0x9ffae9373758c13c!8m2!3d10.2381136!4d77.4891822",10.2352337,77.4618525,,Kodaikanal,,Serbia,
ELoc000399,"Kogarah, Sydney,  New South Wales, Australia","https://www.google.com/maps/place/Kogarah+NSW+2217,+Australia/@-33.9681478,151.1265894,15z/data=!3m1!4b1!4m5!3m4!1s0x6b12b9e6e2340619:0x5017d681632bd00!8m2!3d-33.9674!4d151.13648",-33.9681478,151.1265894,Kogarah,Sydney,New South Wales,India,
ELoc000400,"Kohgiluyeh-Boirahmad Province, Iran","https://www.google.com/maps/place/Kohgiluyeh+and+Boyer-Ahmad+Province,+Iran/@30.8420854,50.2443041,9z/data=!3m1!4b1!4m5!3m4!1s0x3fb0bb5e7eb527e7:0x6cfd86b0bb5ae0ea!8m2!3d30.724586!4d50.8456323",30.8420854,50.2443041,,,Kohgiluyeh-Boirahmad Province,,
ELoc000401,"Konya, Turkey","https://www.google.com/maps/place/Konya,+Turkey/@37.8786945,32.3663986,11z/data=!3m1!4b1!4m5!3m4!1s0x14d08568d615f745:0x240dd0fc08060967!8m2!3d37.8746429!4d32.4931554",37.8786945,32.3663986,,Konya,,Iran,
ELoc000402,"Konyo Province, Turkey","https://www.google.com/maps/place/Konya,+Turkey/@37.9809065,31.7110907,8z/data=!3m1!4b1!4m5!3m4!1s0x14d085a54152234b:0xf81f4fcd25c42c31!8m2!3d37.9838134!4d32.7181375",37.9809065,31.7110907,,,Konyo Province,Turkey,
ELoc000403,Kopaonik mountain,"https://www.google.com/maps/search/Kopaonik+mountain/@43.2703014,20.805367,14z/data=!3m1!4b1",43.2703014,20.805367,Kopaonik mountain,,,Turkey,
ELoc000404,"Koplik,Albania","https://www.google.com/maps/place/Koplik,+Albania/@42.2052946,19.4259308,14z/data=!3m1!4b1!4m5!3m4!1s0x134dfbaf36de8ba3:0xaf55da7ca7534225!8m2!3d42.2130591!4d19.4437591",42.2052946,19.4259308,,Koplik,,Albania,
ELoc000405,Korea,"https://www.google.com/maps/place/Korea/@37.9311004,123.1643882,6z/data=!3m1!4b1!4m5!3m4!1s0x356263108b3d1c3b:0x86416151fc4a3997!8m2!3d37.6639976!4d127.9784585",37.9311004,123.1643882,,,,Korea,
ELoc000406,Korinthos (Greece),"https://www.google.com/maps/place/Corinth+201+00,+Greece/@37.9359814,22.9130597,14z/data=!3m1!4b1!4m5!3m4!1s0x14a0144ce0a75b5f:0xcbec55e5ce5dabf4!8m2!3d37.9386365!4d22.9322383",37.9359814,22.9130597,,Korinthos,,Greece,
ELoc000407,"Kovanlucka Cuka, Serbia","https://www.google.com/maps/search/Kovanlucka+Cuka,+Serbia/@43.3020083,21.896106,17z/data=!3m1!4b1",43.3020083,21.896106,,Kovanlucka Cuka,,Serbia,
ELoc000408,"Kozani, continental Greece","https://www.google.com/maps/search/Kozani,%E2%80%89continental%E2%80%89Greece/@40.2990666,21.7822024,15z/data=!3m1!4b1",40.2990666,21.7822024,Kozani,continental,,Greece,
ELoc000409,"Kulim, Malaysia","https://www.google.com/maps/place/Kulim+District,+Kedah,+Malaysia/@5.4080297,100.5553111,11z/data=!3m1!4b1!4m5!3m4!1s0x31b533e9d210cc93:0x4ec39c2b59a0e68e!8m2!3d5.3654746!4d100.5523905",5.4080297,100.5553111,,Kulim,,Malaysia,
ELoc000410,"Kumaon, India","https://www.google.com/maps/search/Kumaon,+India,uttarakhand/@29.376183,78.8974486,9z/data=!3m1!4b1",29.376183,78.8974486,,Kumaon,,India,
ELoc000411,"Kumodraz, Belgrade","https://www.google.com/maps/place/Kumodra%C5%BE,+Belgrade,+Serbia/@44.7458443,20.501325,14z/data=!3m1!4b1!4m5!3m4!1s0x475a713461e545eb:0xf552f572b2d39c2c!8m2!3d44.7394333!4d20.5098129",44.7458443,20.501325,,Kumodraz,,Belgrade,
ELoc000412,"Kyoto,Japan","https://www.google.com/maps/place/Kyoto,+Japan/@35.0983966,135.5787899,11z/data=!3m1!4b1!4m5!3m4!1s0x6001a8d6cd3cc3f1:0xc0961d366bbb1d3d!8m2!3d35.011564!4d135.7681489",35.0983966,135.5787899,,Kyoto,,Japan,
ELoc000413,"La Burrada, Argentina","https://www.google.com/maps/search/La+Burrada,+Argentina/@-42.9136467,-71.3259306,17z/data=!3m1!4b1",-42.9136467,-71.3259306,,La Burrada,,Argentina,
ELoc000414,La Maddalena Sassari,"https://www.google.com/maps/place/La+Maddalena,+Province+of+Olbia-Tempio,+Italy/@41.2197515,9.3924701,14z/data=!3m1!4b1!4m5!3m4!1s0x12d969d4550eca09:0xfe585f0882dca71c!8m2!3d41.2165538!4d9.4047122",41.2197515,9.3924701,La Maddalena Sassari,,,,
ELoc000415,"La Rioja, Argentina","https://www.google.com/maps/place/La+Rioja,+La+Rioja+Province,+Argentina/@-29.4141291,-66.925817,12z/data=!3m1!4b1!4m5!3m4!1s0x9427d9873396f7e5:0x3e1c9c348972c7ca!8m2!3d-29.4134538!4d-66.8564579",-29.4141291,-66.925817,,La Rioja,,Argentina,
ELoc000416,"Lagaedo Grande, Rio Grande do Sul State, South Brazil","https://www.google.com/maps/search/Lagaedo+Grande,+Rio+Grande+do+Sul+State,+South+Brazil/@-30.3918752,-55.9132562,7z/data=!3m1!4b1",-30.3918752,-55.9132562,,Lagaedo Grande,Rio Grande do Sul State,Brazil,
ELoc000417,"Lagos, Nigeria","https://www.google.com/maps/place/Lagos,+Nigeria/@6.5483768,3.1438738,11z/data=!3m1!4b1!4m5!3m4!1s0x103b8b2ae68280c1:0xdc9e87a367c3d9cb!8m2!3d6.5243793!4d3.3792057",6.5483768,3.1438738,,Lagos,,Nigeria,
ELoc000418,"Lai Vung district, Dong Thap province","https://www.google.com/maps/place/Lai+Vung+District,+%C4%90%E1%BB%93ng+Th%C3%A1p+Province,+Vietnam/@10.2450514,105.5762296,12z/data=!3m1!4b1!4m5!3m4!1s0x310a7919960bb19f:0xbb67111fb8b32163!8m2!3d10.255455!4d105.6647142",10.2450514,105.5762296,,Lai Vung district,Dong Thap province,Vietnam,
ELoc000419,Larache (North of Morrocco),"https://www.google.com/maps/place/Larache,+Morocco/@35.1759726,-6.1904961,13z/data=!3m1!4b1!4m5!3m4!1s0xd0bcf2ab8e99da7:0x4a2ed27c15a15ef0!8m2!3d35.1744271!4d-6.1473964",35.1759726,-6.1904961,North of Morrocco,Larache,,Morrocco,
